{"type": "FeatureCollection", "crs": {"type": "name", "properties": {"name": "EPSG:4326"}}, "features": [{"type": "Feature", "id": "6170719287", "properties": {"lon": "124.6143009000000", "lat": "8.5043634000000", "name": "Bulua Police Station \u2116 7", "amenity": "police", "pk": "6170719287"}, "geometry": {"type": "Point", "coordinates": [124.6143009, 8.5043634]}}, {"type": "Feature", "id": "1292507696", "properties": {"lon": "121.0763884000000", "lat": "14.5510546000000", "name": "PCP \u2116 2", "amenity": "police", "pk": "1292507696"}, "geometry": {"type": "Point", "coordinates": [121.0763884, 14.5510546]}}, {"type": "Feature", "id": "6180117811", "properties": {"lon": "123.8065976000000", "lat": "8.4871202000000", "name": "N/A", "amenity": "police", "pk": "6180117811"}, "geometry": {"type": "Point", "coordinates": [123.8065976, 8.4871202]}}, {"type": "Feature", "id": "1293229572", "properties": {"lon": "121.3351708000000", "lat": "14.1867623000000", "name": "N/A", "amenity": "police", "pk": "1293229572"}, "geometry": {"type": "Point", "coordinates": [121.3351708, 14.1867623]}}, {"type": "Feature", "id": "6380993937", "properties": {"lon": "121.0603395000000", "lat": "14.4903699000000", "name": "Barangay Outpost", "amenity": "police", "pk": "6380993937"}, "geometry": {"type": "Point", "coordinates": [121.0603395, 14.4903699]}}, {"type": "Feature", "id": "2199778715", "properties": {"lon": "119.9317990000000", "lat": "15.6264831000000", "name": "Candelaria Police", "amenity": "police", "pk": "2199778715"}, "geometry": {"type": "Point", "coordinates": [119.931799, 15.6264831]}}, {"type": "Feature", "id": "7449126249", "properties": {"lon": "123.8497931000000", "lat": "9.6325627000000", "name": "SafeLife Security Systems", "amenity": "police", "pk": "7449126249"}, "geometry": {"type": "Point", "coordinates": [123.8497931, 9.6325627]}}, {"type": "Feature", "id": "4322760095", "properties": {"lon": "124.5938683000000", "lat": "8.3975342000000", "name": "N/A", "amenity": "police", "pk": "4322760095"}, "geometry": {"type": "Point", "coordinates": [124.5938683, 8.3975342]}}, {"type": "Feature", "id": "8064380690", "properties": {"lon": "123.2011289000000", "lat": "9.9783712000000", "name": "Jimalalud Municipal Police Station", "amenity": "police", "pk": "8064380690"}, "geometry": {"type": "Point", "coordinates": [123.2011289, 9.9783712]}}, {"type": "Feature", "id": "4333492989", "properties": {"lon": "121.0404034000000", "lat": "14.7168231000000", "name": "Gulod Police Community Precinct \u2116 2", "amenity": "police", "pk": "4333492989"}, "geometry": {"type": "Point", "coordinates": [121.0404034, 14.7168231]}}, {"type": "Feature", "id": "8073285317", "properties": {"lon": "120.5893583000000", "lat": "15.1684448000000", "name": "Police Assistance Desk (PADS)", "amenity": "police", "pk": "8073285317"}, "geometry": {"type": "Point", "coordinates": [120.5893583, 15.1684448]}}, {"type": "Feature", "id": "4423537992", "properties": {"lon": "123.7975397000000", "lat": "8.4851990000000", "name": "Misamis Occidental Provincial Police Office", "amenity": "police", "pk": "4423537992"}, "geometry": {"type": "Point", "coordinates": [123.7975397, 8.485199]}}, {"type": "Feature", "id": "4676058935", "properties": {"lon": "120.9688423000000", "lat": "14.6482064000000", "name": "Caloocan Police HQ", "amenity": "police", "pk": "4676058935"}, "geometry": {"type": "Point", "coordinates": [120.9688423, 14.6482064]}}, {"type": "Feature", "id": "9119647959", "properties": {"lon": "118.5371813000000", "lat": "9.4160476000000", "name": "Aborlan Municipal Police Station", "amenity": "police", "pk": "9119647959"}, "geometry": {"type": "Point", "coordinates": [118.5371813, 9.4160476]}}, {"type": "Feature", "id": "4680889790", "properties": {"lon": "122.5269024000000", "lat": "10.9336938000000", "name": "Regional Public Safety Battalion 6", "amenity": "police", "pk": "4680889790"}, "geometry": {"type": "Point", "coordinates": [122.5269024, 10.9336938]}}, {"type": "Feature", "id": "9196064227", "properties": {"lon": "120.6039009000000", "lat": "15.1517907000000", "name": "Barangay Peace Keeping Action Teams Headquarters", "amenity": "police", "pk": "9196064227"}, "geometry": {"type": "Point", "coordinates": [120.6039009, 15.1517907]}}, {"type": "Feature", "id": "4698661993", "properties": {"lon": "122.9746993000000", "lat": "10.6311585000000", "name": "Bac-up 7 Police Station", "amenity": "police", "pk": "4698661993"}, "geometry": {"type": "Point", "coordinates": [122.9746993, 10.6311585]}}, {"type": "Feature", "id": "11035481405", "properties": {"lon": "121.6073004000000", "lat": "13.9142881000000", "name": "Quezon Maritime Police Station", "amenity": "police", "pk": "11035481405"}, "geometry": {"type": "Point", "coordinates": [121.6073004, 13.9142881]}}, {"type": "Feature", "id": "11045809976", "properties": {"lon": "121.6199069000000", "lat": "13.9056754000000", "name": "Police Community Precinct \u2116 4", "amenity": "police", "pk": "11045809976"}, "geometry": {"type": "Point", "coordinates": [121.6199069, 13.9056754]}}, {"type": "Feature", "id": "4698688489", "properties": {"lon": "122.9417728000000", "lat": "10.6426687000000", "name": "Santes Residence", "amenity": "police", "pk": "4698688489"}, "geometry": {"type": "Point", "coordinates": [122.9417728, 10.6426687]}}, {"type": "Feature", "id": "11049327939", "properties": {"lon": "121.0093085000000", "lat": "14.5907143000000", "name": "Pandacan Police Station 10", "amenity": "police", "pk": "11049327939"}, "geometry": {"type": "Point", "coordinates": [121.0093085, 14.5907143]}}, {"type": "Feature", "id": "4698938092", "properties": {"lon": "121.6845300000000", "lat": "16.3400300000000", "name": "MADDELA (PNP) POLICE STATION", "amenity": "police", "pk": "4698938092"}, "geometry": {"type": "Point", "coordinates": [121.68453, 16.34003]}}, {"type": "Feature", "id": "11121690413", "properties": {"lon": "120.9539198000000", "lat": "14.2995355000000", "name": "Robinsons Place Dasmari\u00f1as Security", "amenity": "police", "pk": "11121690413"}, "geometry": null}, {"type": "Feature", "id": "4795965721", "properties": {"lon": "120.9365469000000", "lat": "14.7823945000000", "name": "Pozon Residence/ Pozon Machine Shop", "amenity": "police", "pk": "4795965721"}, "geometry": {"type": "Point", "coordinates": [120.9365469, 14.7823945]}}, {"type": "Feature", "id": "5158634521", "properties": {"lon": "122.0642779000000", "lat": "6.6803335000000", "name": "Santa Clara Police Station", "amenity": "police", "pk": "5158634521"}, "geometry": {"type": "Point", "coordinates": [122.0642779, 6.6803335]}}, {"type": "Feature", "id": "5703553423", "properties": {"lon": "120.3608297000000", "lat": "15.7126071000000", "name": "San Clemente Police Station", "amenity": "police", "pk": "5703553423"}, "geometry": {"type": "Point", "coordinates": [120.3608297, 15.7126071]}}, {"type": "Feature", "id": "5749690821", "properties": {"lon": "120.9949266000000", "lat": "14.4614618000000", "name": "CAA Police Community Precinct", "amenity": "police", "pk": "5749690821"}, "geometry": {"type": "Point", "coordinates": [120.9949266, 14.4614618]}}, {"type": "Feature", "id": "6071446818", "properties": {"lon": "124.3176100000000", "lat": "8.2492600000000", "name": "N/A", "amenity": "police", "pk": "6071446818"}, "geometry": {"type": "Point", "coordinates": [124.31761, 8.24926]}}, {"type": "Feature", "id": "677321006", "properties": {"lon": "121.3621895000000", "lat": "13.9930151000000", "name": "Brgy Bungoy Police Outpost", "amenity": "police", "pk": "677321006"}, "geometry": {"type": "Point", "coordinates": [121.3621895, 13.9930151]}}, {"type": "Feature", "id": "8078466437", "properties": {"lon": "123.8940795000000", "lat": "10.3309870000000", "name": "Cebu Provincial Police Office", "amenity": "police", "pk": "8078466437"}, "geometry": {"type": "Point", "coordinates": [123.8940795, 10.330987]}}, {"type": "Feature", "id": "685091159", "properties": {"lon": "121.2034595000000", "lat": "14.1719328000000", "name": "Aguas Vivas Barangay Outpost", "amenity": "police", "pk": "685091159"}, "geometry": {"type": "Point", "coordinates": [121.2034595, 14.1719328]}}, {"type": "Feature", "id": "1273269496", "properties": {"lon": "121.0572948000000", "lat": "14.5330416000000", "name": "Pinagsama Police Sub-station \u2116 3", "amenity": "police", "pk": "1273269496"}, "geometry": {"type": "Point", "coordinates": [121.0572948, 14.5330416]}}, {"type": "Feature", "id": "1277182553", "properties": {"lon": "121.0441788000000", "lat": "14.4539140000000", "name": "Police Community Precinct \u2116 6", "amenity": "police", "pk": "1277182553"}, "geometry": {"type": "Point", "coordinates": [121.0441788, 14.453914]}}, {"type": "Feature", "id": "1692689166", "properties": {"lon": "120.9517661000000", "lat": "13.9297505000000", "name": "San Nicolas Police", "amenity": "police", "pk": "1692689166"}, "geometry": {"type": "Point", "coordinates": [120.9517661, 13.9297505]}}, {"type": "Feature", "id": "1727574326", "properties": {"lon": "124.7263969000000", "lat": "9.2460562000000", "name": "Mambajao Police District", "amenity": "police", "pk": "1727574326"}, "geometry": {"type": "Point", "coordinates": [124.7263969, 9.2460562]}}, {"type": "Feature", "id": "1781512009", "properties": {"lon": "124.8244842000000", "lat": "11.9790379000000", "name": "San Jorge Police Station", "amenity": "police", "pk": "1781512009"}, "geometry": {"type": "Point", "coordinates": [124.8244842, 11.9790379]}}, {"type": "Feature", "id": "2518552208", "properties": {"lon": "124.2336175000000", "lat": "13.5820628000000", "name": "Highway Patrol Group", "amenity": "police", "pk": "2518552208"}, "geometry": {"type": "Point", "coordinates": [124.2336175, 13.5820628]}}, {"type": "Feature", "id": "2614463591", "properties": {"lon": "120.4339098000000", "lat": "15.6177737000000", "name": "Checkpoint: Brgy. Poblacion, Sta Ignacia", "amenity": "police", "pk": "2614463591"}, "geometry": {"type": "Point", "coordinates": [120.4339098, 15.6177737]}}, {"type": "Feature", "id": "2882204767", "properties": {"lon": "122.8228593000000", "lat": "10.4613145000000", "name": "Valladolid Police Office", "amenity": "police", "pk": "2882204767"}, "geometry": {"type": "Point", "coordinates": [122.8228593, 10.4613145]}}, {"type": "Feature", "id": "3632383420", "properties": {"lon": "125.5228932000000", "lat": "8.9436734000000", "name": "Police Box (ACLC)", "amenity": "police", "pk": "3632383420"}, "geometry": {"type": "Point", "coordinates": [125.5228932, 8.9436734]}}, {"type": "Feature", "id": "3707422537", "properties": {"lon": "123.3102210000000", "lat": "9.3142218000000", "name": "Dumaguete City Maritime Police Station", "amenity": "police", "pk": "3707422537"}, "geometry": {"type": "Point", "coordinates": [123.310221, 9.3142218]}}, {"type": "Feature", "id": "4191680389", "properties": {"lon": "120.8379528000000", "lat": "16.6232181000000", "name": "Kabayan Municipal Police Station", "amenity": "police", "pk": "4191680389"}, "geometry": {"type": "Point", "coordinates": [120.8379528, 16.6232181]}}, {"type": "Feature", "id": "4412906889", "properties": {"lon": "121.7677473000000", "lat": "16.9515599000000", "name": "BJMP CAUAYAN CITY JAIL", "amenity": "police", "pk": "4412906889"}, "geometry": {"type": "Point", "coordinates": [121.7677473, 16.9515599]}}, {"type": "Feature", "id": "4481107252", "properties": {"lon": "121.1899315000000", "lat": "13.7946346000000", "name": "Police outpost", "amenity": "police", "pk": "4481107252"}, "geometry": {"type": "Point", "coordinates": [121.1899315, 13.7946346]}}, {"type": "Feature", "id": "4613745689", "properties": {"lon": "121.8876573000000", "lat": "17.1421965000000", "name": "Ilagan City Police Office", "amenity": "police", "pk": "4613745689"}, "geometry": {"type": "Point", "coordinates": [121.8876573, 17.1421965]}}, {"type": "Feature", "id": "4728642400", "properties": {"lon": "120.6657631000000", "lat": "15.3078411000000", "name": "N/A", "amenity": "police", "pk": "4728642400"}, "geometry": {"type": "Point", "coordinates": [120.6657631, 15.3078411]}}, {"type": "Feature", "id": "4882929323", "properties": {"lon": "123.3447881000000", "lat": "8.5989570000000", "name": "Zamboanga del Norte Provoncial Crime Laboratory Office", "amenity": "police", "pk": "4882929323"}, "geometry": {"type": "Point", "coordinates": [123.3447881, 8.598957]}}, {"type": "Feature", "id": "255053941", "properties": {"lon": "121.0035632000000", "lat": "14.5931654000000", "name": "Pandacan Police Station", "amenity": "police", "pk": "255053941"}, "geometry": {"type": "Point", "coordinates": [121.0035632, 14.5931654]}}, {"type": "Feature", "id": "6527700496", "properties": {"lon": "125.0246344000000", "lat": "8.9112297000000", "name": "N/A", "amenity": "police", "pk": "6527700496"}, "geometry": {"type": "Point", "coordinates": [125.0246344, 8.9112297]}}, {"type": "Feature", "id": "662717155", "properties": {"lon": "120.9142222000000", "lat": "14.2614888000000", "name": "Cavite Mobile Patrol Javalera", "amenity": "police", "pk": "662717155"}, "geometry": {"type": "Point", "coordinates": [120.9142222, 14.2614888]}}, {"type": "Feature", "id": "255070474", "properties": {"lon": "121.0097537000000", "lat": "14.5337118000000", "name": "PCP 7", "amenity": "police", "pk": "255070474"}, "geometry": {"type": "Point", "coordinates": [121.0097537, 14.5337118]}}, {"type": "Feature", "id": "925128115", "properties": {"lon": "121.1523968000000", "lat": "14.0801070000000", "name": "N/A", "amenity": "police", "pk": "925128115"}, "geometry": {"type": "Point", "coordinates": [121.1523968, 14.080107]}}, {"type": "Feature", "id": "925350157", "properties": {"lon": "121.0552077000000", "lat": "14.8611676000000", "name": "N/A", "amenity": "police", "pk": "925350157"}, "geometry": {"type": "Point", "coordinates": [121.0552077, 14.8611676]}}, {"type": "Feature", "id": "945908378", "properties": {"lon": "124.6554668000000", "lat": "11.0954793000000", "name": "8th Regional Public Safety Battalion, Milagro Patrol Base", "amenity": "police", "pk": "945908378"}, "geometry": {"type": "Point", "coordinates": [124.6554668, 11.0954793]}}, {"type": "Feature", "id": "1299673418", "properties": {"lon": "120.2655326000000", "lat": "14.8494472000000", "name": "Olongapo City Police Office Headquarters", "amenity": "police", "pk": "1299673418"}, "geometry": {"type": "Point", "coordinates": [120.2655326, 14.8494472]}}, {"type": "Feature", "id": "4020822708", "properties": {"lon": "125.9810677000000", "lat": "8.5084616000000", "name": "Barangay 2 Outpost", "amenity": "police", "pk": "4020822708"}, "geometry": {"type": "Point", "coordinates": [125.9810677, 8.5084616]}}, {"type": "Feature", "id": "4134690992", "properties": {"lon": "123.8500501000000", "lat": "8.0168894000000", "name": "Army Checkpoint ", "amenity": "police", "pk": "4134690992"}, "geometry": {"type": "Point", "coordinates": [123.8500501, 8.0168894]}}, {"type": "Feature", "id": "4144473089", "properties": {"lon": "120.7044241000000", "lat": "15.0185747000000", "name": "N/A", "amenity": "police", "pk": "4144473089"}, "geometry": {"type": "Point", "coordinates": [120.7044241, 15.0185747]}}, {"type": "Feature", "id": "4196879728", "properties": {"lon": "123.0183107000000", "lat": "11.1701572000000", "name": "Polica Station", "amenity": "police", "pk": "4196879728"}, "geometry": {"type": "Point", "coordinates": [123.0183107, 11.1701572]}}, {"type": "Feature", "id": "4245904649", "properties": {"lon": "122.0722936000000", "lat": "6.9527036000000", "name": "Community Police Assistance Center", "amenity": "police", "pk": "4245904649"}, "geometry": {"type": "Point", "coordinates": [122.0722936, 6.9527036]}}, {"type": "Feature", "id": "5614634322", "properties": {"lon": "122.8283890000000", "lat": "11.1763645000000", "name": "San Rafael Municipal Police Station", "amenity": "police", "pk": "5614634322"}, "geometry": {"type": "Point", "coordinates": [122.828389, 11.1763645]}}, {"type": "Feature", "id": "6082280885", "properties": {"lon": "121.1963291000000", "lat": "13.4216566000000", "name": "Camp Efigenio C Navarro", "amenity": "police", "pk": "6082280885"}, "geometry": {"type": "Point", "coordinates": [121.1963291, 13.4216566]}}, {"type": "Feature", "id": "6288261265", "properties": {"lon": "124.1025705000000", "lat": "9.7019743000000", "name": "Bilar Police Station", "amenity": "police", "pk": "6288261265"}, "geometry": {"type": "Point", "coordinates": [124.1025705, 9.7019743]}}, {"type": "Feature", "id": "631226978", "properties": {"lon": "120.9235652000000", "lat": "13.8795641000000", "name": "Taal Police Station", "amenity": "police", "pk": "631226978"}, "geometry": {"type": "Point", "coordinates": [120.9235652, 13.8795641]}}, {"type": "Feature", "id": "1964728898", "properties": {"lon": "120.9251954000000", "lat": "14.1000349000000", "name": "N/A", "amenity": "police", "pk": "1964728898"}, "geometry": {"type": "Point", "coordinates": [120.9251954, 14.1000349]}}, {"type": "Feature", "id": "2801287795", "properties": {"lon": "122.1188422000000", "lat": "6.9475170000000", "name": "Police Outpost", "amenity": "police", "pk": "2801287795"}, "geometry": {"type": "Point", "coordinates": [122.1188422, 6.947517]}}, {"type": "Feature", "id": "3629124813", "properties": {"lon": "125.5319746000000", "lat": "8.9458044000000", "name": "Gaisano Police Outpost", "amenity": "police", "pk": "3629124813"}, "geometry": {"type": "Point", "coordinates": [125.5319746, 8.9458044]}}, {"type": "Feature", "id": "1058992625", "properties": {"lon": "120.9861761000000", "lat": "14.5819555000000", "name": "EAC Outpost", "amenity": "police", "pk": "1058992625"}, "geometry": {"type": "Point", "coordinates": [120.9861761, 14.5819555]}}, {"type": "Feature", "id": "2617585334", "properties": {"lon": "121.0975610000000", "lat": "14.6350954000000", "name": "N/A", "amenity": "police", "pk": "2617585334"}, "geometry": {"type": "Point", "coordinates": [121.097561, 14.6350954]}}, {"type": "Feature", "id": "4744726223", "properties": {"lon": "117.9959323000000", "lat": "9.2376291000000", "name": "Quezon Municipal Police Station", "amenity": "police", "pk": "4744726223"}, "geometry": {"type": "Point", "coordinates": [117.9959323, 9.2376291]}}, {"type": "Feature", "id": "8212852422", "properties": {"lon": "125.1893164000000", "lat": "6.1073946000000", "name": "PCP 6", "amenity": "police", "pk": "8212852422"}, "geometry": {"type": "Point", "coordinates": [125.1893164, 6.1073946]}}, {"type": "Feature", "id": "8213083317", "properties": {"lon": "125.0226987000000", "lat": "6.2345655000000", "name": "RMFB 12", "amenity": "police", "pk": "8213083317"}, "geometry": {"type": "Point", "coordinates": [125.0226987, 6.2345655]}}, {"type": "Feature", "id": "8213085918", "properties": {"lon": "124.2445972000000", "lat": "7.2196692000000", "name": "404SAC", "amenity": "police", "pk": "8213085918"}, "geometry": {"type": "Point", "coordinates": [124.2445972, 7.2196692]}}, {"type": "Feature", "id": "8213086019", "properties": {"lon": "124.6289159000000", "lat": "6.6654749000000", "name": "RHPU 12", "amenity": "police", "pk": "8213086019"}, "geometry": {"type": "Point", "coordinates": [124.6289159, 6.6654749]}}, {"type": "Feature", "id": "8244323017", "properties": {"lon": "124.2450790000000", "lat": "7.2011330000000", "name": "SWAT", "amenity": "police", "pk": "8244323017"}, "geometry": {"type": "Point", "coordinates": [124.245079, 7.201133]}}, {"type": "Feature", "id": "1332037022", "properties": {"lon": "121.5562390000000", "lat": "13.9754696000000", "name": "CALABARZON Monitoring Base", "amenity": "police", "pk": "1332037022"}, "geometry": {"type": "Point", "coordinates": [121.556239, 13.9754696]}}, {"type": "Feature", "id": "2099044286", "properties": {"lon": "124.2903502000000", "lat": "8.4338438000000", "name": "Naawan Police Station", "amenity": "police", "pk": "2099044286"}, "geometry": {"type": "Point", "coordinates": [124.2903502, 8.4338438]}}, {"type": "Feature", "id": "2102353934", "properties": {"lon": "121.0446230000000", "lat": "14.4344877000000", "name": "N/A", "amenity": "police", "pk": "2102353934"}, "geometry": {"type": "Point", "coordinates": [121.044623, 14.4344877]}}, {"type": "Feature", "id": "2738956830", "properties": {"lon": "120.9644655000000", "lat": "14.6921868000000", "name": "Malinta Police Community Precinct", "amenity": "police", "pk": "2738956830"}, "geometry": {"type": "Point", "coordinates": [120.9644655, 14.6921868]}}, {"type": "Feature", "id": "2921697883", "properties": {"lon": "121.1314136000000", "lat": "13.8185999000000", "name": "Ibaan Police Station", "amenity": "police", "pk": "2921697883"}, "geometry": {"type": "Point", "coordinates": [121.1314136, 13.8185999]}}, {"type": "Feature", "id": "3735387372", "properties": {"lon": "125.1995565000000", "lat": "10.3940570000000", "name": "Hinunangan Police Station", "amenity": "police", "pk": "3735387372"}, "geometry": {"type": "Point", "coordinates": [125.1995565, 10.394057]}}, {"type": "Feature", "id": "5296823727", "properties": {"lon": "120.3363417000000", "lat": "16.8202342000000", "name": "Police Station", "amenity": "police", "pk": "5296823727"}, "geometry": {"type": "Point", "coordinates": [120.3363417, 16.8202342]}}, {"type": "Feature", "id": "6004372975", "properties": {"lon": "120.3332552000000", "lat": "16.6156067000000", "name": "Santiago Police Station", "amenity": "police", "pk": "6004372975"}, "geometry": {"type": "Point", "coordinates": [120.3332552, 16.6156067]}}, {"type": "Feature", "id": "7242908857", "properties": {"lon": "123.8809870000000", "lat": "10.2991508000000", "name": "Police Station 10", "amenity": "police", "pk": "7242908857"}, "geometry": {"type": "Point", "coordinates": [123.880987, 10.2991508]}}, {"type": "Feature", "id": "9501082218", "properties": {"lon": "121.0404754000000", "lat": "14.7218139000000", "name": "Task Force Disiplina Comlaint and Action Post", "amenity": "police", "pk": "9501082218"}, "geometry": {"type": "Point", "coordinates": [121.0404754, 14.7218139]}}, {"type": "Feature", "id": "2881569005", "properties": {"lon": "122.1321008000000", "lat": "6.9617892000000", "name": "N/A", "amenity": "police", "pk": "2881569005"}, "geometry": {"type": "Point", "coordinates": [122.1321008, 6.9617892]}}, {"type": "Feature", "id": "255050240", "properties": {"lon": "121.0298300000000", "lat": "14.5812310000000", "name": "Police Community Precinct 2", "amenity": "police", "pk": "255050240"}, "geometry": {"type": "Point", "coordinates": [121.02983, 14.581231]}}, {"type": "Feature", "id": "255051494", "properties": {"lon": "120.9947510000000", "lat": "14.4570910000000", "name": "CAA Police Community Precinct 4", "amenity": "police", "pk": "255051494"}, "geometry": {"type": "Point", "coordinates": [120.994751, 14.457091]}}, {"type": "Feature", "id": "255052373", "properties": {"lon": "121.0890695000000", "lat": "14.5889507000000", "name": "Pcp-5", "amenity": "police", "pk": "255052373"}, "geometry": {"type": "Point", "coordinates": [121.0890695, 14.5889507]}}, {"type": "Feature", "id": "4890813222", "properties": {"lon": "124.4719054000000", "lat": "10.0487774000000", "name": "Ubay Police Station", "amenity": "police", "pk": "4890813222"}, "geometry": {"type": "Point", "coordinates": [124.4719054, 10.0487774]}}, {"type": "Feature", "id": "6351454006", "properties": {"lon": "120.7035571000000", "lat": "15.0185286000000", "name": "Region 3 Police Headquarters", "amenity": "police", "pk": "6351454006"}, "geometry": {"type": "Point", "coordinates": [120.7035571, 15.0185286]}}, {"type": "Feature", "id": "7509225479", "properties": {"lon": "120.3770694000000", "lat": "15.6203290000000", "name": "N/A", "amenity": "police", "pk": "7509225479"}, "geometry": {"type": "Point", "coordinates": [120.3770694, 15.620329]}}, {"type": "Feature", "id": "305605717", "properties": {"lon": "121.3254008000000", "lat": "14.0742534000000", "name": "San Pablo City Police Intelligence and Narcotics Division", "amenity": "police", "pk": "305605717"}, "geometry": {"type": "Point", "coordinates": [121.3254008, 14.0742534]}}, {"type": "Feature", "id": "319944737", "properties": {"lon": "120.3302603000000", "lat": "14.8034477000000", "name": "Binictican Detachment", "amenity": "police", "pk": "319944737"}, "geometry": {"type": "Point", "coordinates": [120.3302603, 14.8034477]}}, {"type": "Feature", "id": "320864273", "properties": {"lon": "120.9794859000000", "lat": "14.5360346000000", "name": "Pasay Police Community Precint \u2116 11", "amenity": "police", "pk": "320864273"}, "geometry": {"type": "Point", "coordinates": [120.9794859, 14.5360346]}}, {"type": "Feature", "id": "325291008", "properties": {"lon": "121.3238758000000", "lat": "14.0675915000000", "name": "San Pablo City Police", "amenity": "police", "pk": "325291008"}, "geometry": {"type": "Point", "coordinates": [121.3238758, 14.0675915]}}, {"type": "Feature", "id": "384843739", "properties": {"lon": "120.9384050000000", "lat": "14.1001380000000", "name": "N/A", "amenity": "police", "pk": "384843739"}, "geometry": {"type": "Point", "coordinates": [120.938405, 14.100138]}}, {"type": "Feature", "id": "402287519", "properties": {"lon": "120.9326403000000", "lat": "14.1033984000000", "name": "N/A", "amenity": "police", "pk": "402287519"}, "geometry": {"type": "Point", "coordinates": [120.9326403, 14.1033984]}}, {"type": "Feature", "id": "432261093", "properties": {"lon": "125.6378484000000", "lat": "7.0966563000000", "name": "Jerome Police Outpost", "amenity": "police", "pk": "432261093"}, "geometry": {"type": "Point", "coordinates": [125.6378484, 7.0966563]}}, {"type": "Feature", "id": "10579366025", "properties": {"lon": "124.9658519000000", "lat": "10.3469175000000", "name": "Bontoc Municipal Police Station", "amenity": "police", "pk": "10579366025"}, "geometry": {"type": "Point", "coordinates": [124.9658519, 10.3469175]}}, {"type": "Feature", "id": "25679365", "properties": {"lon": "123.5889150000000", "lat": "12.9111920000000", "name": "Tourism Oriented Police Station, Donsol", "amenity": "police", "pk": "25679365"}, "geometry": {"type": "Point", "coordinates": [123.588915, 12.911192]}}, {"type": "Feature", "id": "10613885649", "properties": {"lon": "125.2591195000000", "lat": "10.2751904000000", "name": "N/A", "amenity": "police", "pk": "10613885649"}, "geometry": {"type": "Point", "coordinates": [125.2591195, 10.2751904]}}, {"type": "Feature", "id": "25750823", "properties": {"lon": "122.2842894000000", "lat": "11.7167242000000", "name": "Makato Police Station", "amenity": "police", "pk": "25750823"}, "geometry": {"type": "Point", "coordinates": [122.2842894, 11.7167242]}}, {"type": "Feature", "id": "10786608852", "properties": {"lon": "124.9578057000000", "lat": "10.8909035000000", "name": "N/A", "amenity": "police", "pk": "10786608852"}, "geometry": {"type": "Point", "coordinates": [124.9578057, 10.8909035]}}, {"type": "Feature", "id": "11009089292", "properties": {"lon": "122.1433407000000", "lat": "18.4619191000000", "name": "N/A", "amenity": "police", "pk": "11009089292"}, "geometry": {"type": "Point", "coordinates": [122.1433407, 18.4619191]}}, {"type": "Feature", "id": "25767764", "properties": {"lon": "121.9393940000000", "lat": "11.9408700000000", "name": "Police Station", "amenity": "police", "pk": "25767764"}, "geometry": {"type": "Point", "coordinates": [121.939394, 11.94087]}}, {"type": "Feature", "id": "255055167", "properties": {"lon": "121.0084187000000", "lat": "14.5474907000000", "name": "Pcp- 5", "amenity": "police", "pk": "255055167"}, "geometry": {"type": "Point", "coordinates": [121.0084187, 14.5474907]}}, {"type": "Feature", "id": "255058373", "properties": {"lon": "120.9606320000000", "lat": "14.6517900000000", "name": "Pcp-3", "amenity": "police", "pk": "255058373"}, "geometry": {"type": "Point", "coordinates": [120.960632, 14.65179]}}, {"type": "Feature", "id": "255065215", "properties": {"lon": "120.9846776000000", "lat": "14.6039633000000", "name": "Central Market Police Station", "amenity": "police", "pk": "255065215"}, "geometry": {"type": "Point", "coordinates": [120.9846776, 14.6039633]}}, {"type": "Feature", "id": "255065336", "properties": {"lon": "120.9945305000000", "lat": "14.5623148000000", "name": "Pcp-1", "amenity": "police", "pk": "255065336"}, "geometry": {"type": "Point", "coordinates": [120.9945305, 14.5623148]}}, {"type": "Feature", "id": "255066642", "properties": {"lon": "121.0596080000000", "lat": "14.5715310000000", "name": "Police Community Precint \u2116 1", "amenity": "police", "pk": "255066642"}, "geometry": {"type": "Point", "coordinates": [121.059608, 14.571531]}}, {"type": "Feature", "id": "255067324", "properties": {"lon": "121.1006540000000", "lat": "14.6330419000000", "name": "Central Police Station", "amenity": "police", "pk": "255067324"}, "geometry": {"type": "Point", "coordinates": [121.100654, 14.6330419]}}, {"type": "Feature", "id": "255067580", "properties": {"lon": "121.0818435000000", "lat": "14.5587257000000", "name": "Police Community Precinct \u2116 7", "amenity": "police", "pk": "255067580"}, "geometry": {"type": "Point", "coordinates": [121.0818435, 14.5587257]}}, {"type": "Feature", "id": "255071033", "properties": {"lon": "121.0457895000000", "lat": "14.5652012000000", "name": "Guadalupe Police Community Precinct 2", "amenity": "police", "pk": "255071033"}, "geometry": {"type": "Point", "coordinates": [121.0457895, 14.5652012]}}, {"type": "Feature", "id": "255071178", "properties": {"lon": "120.9910888000000", "lat": "14.5007998000000", "name": "Para\u00f1aque Central Police Station", "amenity": "police", "pk": "255071178"}, "geometry": {"type": "Point", "coordinates": [120.9910888, 14.5007998]}}, {"type": "Feature", "id": "255071445", "properties": {"lon": "121.0044632000000", "lat": "14.5720282000000", "name": "San Andres Police Station", "amenity": "police", "pk": "255071445"}, "geometry": {"type": "Point", "coordinates": [121.0044632, 14.5720282]}}, {"type": "Feature", "id": "255064989", "properties": {"lon": "121.0358949000000", "lat": "14.5069266000000", "name": "Taguig Traffic Police", "amenity": "police", "pk": "255064989"}, "geometry": {"type": "Point", "coordinates": [121.0358949, 14.5069266]}}, {"type": "Feature", "id": "255054486", "properties": {"lon": "121.0089111000000", "lat": "14.6815301000000", "name": "Caloocan City Police Community Precint 7", "amenity": "police", "pk": "255054486"}, "geometry": {"type": "Point", "coordinates": [121.0089111, 14.6815301]}}, {"type": "Feature", "id": "603555738", "properties": {"lon": "124.3792787000000", "lat": "11.6203757000000", "name": "N/A", "amenity": "police", "pk": "603555738"}, "geometry": {"type": "Point", "coordinates": [124.3792787, 11.6203757]}}, {"type": "Feature", "id": "255060171", "properties": {"lon": "120.9849132000000", "lat": "14.5579626000000", "name": "Pasay City Police Station 1", "amenity": "police", "pk": "255060171"}, "geometry": {"type": "Point", "coordinates": [120.9849132, 14.5579626]}}, {"type": "Feature", "id": "357738999", "properties": {"lon": "121.1120152000000", "lat": "14.6779267000000", "name": "San Mateo Police Substation", "amenity": "police", "pk": "357738999"}, "geometry": {"type": "Point", "coordinates": [121.1120152, 14.6779267]}}, {"type": "Feature", "id": "255069800", "properties": {"lon": "121.0445599000000", "lat": "14.3947148000000", "name": "Pcp-1", "amenity": "police", "pk": "255069800"}, "geometry": {"type": "Point", "coordinates": [121.0445599, 14.3947148]}}, {"type": "Feature", "id": "255067622", "properties": {"lon": "121.0313601000000", "lat": "14.5666316000000", "name": "Pcp-9", "amenity": "police", "pk": "255067622"}, "geometry": {"type": "Point", "coordinates": [121.0313601, 14.5666316]}}, {"type": "Feature", "id": "255064648", "properties": {"lon": "121.0250010000000", "lat": "14.6870900000000", "name": "Station 3", "amenity": "police", "pk": "255064648"}, "geometry": {"type": "Point", "coordinates": [121.025001, 14.68709]}}, {"type": "Feature", "id": "255069851", "properties": {"lon": "121.0082732000000", "lat": "14.5370798000000", "name": "PCP 6", "amenity": "police", "pk": "255069851"}, "geometry": {"type": "Point", "coordinates": [121.0082732, 14.5370798]}}, {"type": "Feature", "id": "369910760", "properties": {"lon": "123.9420622000000", "lat": "10.3246349000000", "name": "Mandaue City Police Station", "amenity": "police", "pk": "369910760"}, "geometry": {"type": "Point", "coordinates": [123.9420622, 10.3246349]}}, {"type": "Feature", "id": "255062399", "properties": {"lon": "121.0987299000000", "lat": "14.6033780000000", "name": "Pcp-3", "amenity": "police", "pk": "255062399"}, "geometry": {"type": "Point", "coordinates": [121.0987299, 14.603378]}}, {"type": "Feature", "id": "463217145", "properties": {"lon": "121.6115874000000", "lat": "13.9362226000000", "name": "Lucena City Police", "amenity": "police", "pk": "463217145"}, "geometry": {"type": "Point", "coordinates": [121.6115874, 13.9362226]}}, {"type": "Feature", "id": "461689581", "properties": {"lon": "120.7041478000000", "lat": "15.0192616000000", "name": "Crime Lab", "amenity": "police", "pk": "461689581"}, "geometry": {"type": "Point", "coordinates": [120.7041478, 15.0192616]}}, {"type": "Feature", "id": "255063581", "properties": {"lon": "121.0268436000000", "lat": "14.5897925000000", "name": "Mandaluyong Police Community Precinct 1", "amenity": "police", "pk": "255063581"}, "geometry": {"type": "Point", "coordinates": [121.0268436, 14.5897925]}}, {"type": "Feature", "id": "255067630", "properties": {"lon": "121.1001344000000", "lat": "14.6334683000000", "name": "Marikina City Traffic Headquarters", "amenity": "police", "pk": "255067630"}, "geometry": {"type": "Point", "coordinates": [121.1001344, 14.6334683]}}, {"type": "Feature", "id": "255058912", "properties": {"lon": "120.9548519000000", "lat": "14.6467701000000", "name": "Pcp-4", "amenity": "police", "pk": "255058912"}, "geometry": {"type": "Point", "coordinates": [120.9548519, 14.6467701]}}, {"type": "Feature", "id": "255064839", "properties": {"lon": "121.0120271000000", "lat": "14.5414260000000", "name": "PCP-4", "amenity": "police", "pk": "255064839"}, "geometry": {"type": "Point", "coordinates": [121.0120271, 14.541426]}}, {"type": "Feature", "id": "255069882", "properties": {"lon": "121.0287462000000", "lat": "14.5083513000000", "name": "Police Community Precinct 10", "amenity": "police", "pk": "255069882"}, "geometry": {"type": "Point", "coordinates": [121.0287462, 14.5083513]}}, {"type": "Feature", "id": "589651723", "properties": {"lon": "120.9082298000000", "lat": "14.8176450000000", "name": "Balagtas Police Station", "amenity": "police", "pk": "589651723"}, "geometry": {"type": "Point", "coordinates": [120.9082298, 14.817645]}}, {"type": "Feature", "id": "664011183", "properties": {"lon": "122.3624587000000", "lat": "11.7095623000000", "name": "Tourist Police", "amenity": "police", "pk": "664011183"}, "geometry": {"type": "Point", "coordinates": [122.3624587, 11.7095623]}}, {"type": "Feature", "id": "355114301", "properties": {"lon": "123.9157072000000", "lat": "10.3125796000000", "name": "Station 4", "amenity": "police", "pk": "355114301"}, "geometry": {"type": "Point", "coordinates": [123.9157072, 10.3125796]}}, {"type": "Feature", "id": "602897993", "properties": {"lon": "123.7773627000000", "lat": "13.2372535000000", "name": "Police Station", "amenity": "police", "pk": "602897993"}, "geometry": {"type": "Point", "coordinates": [123.7773627, 13.2372535]}}, {"type": "Feature", "id": "457873981", "properties": {"lon": "121.5238141000000", "lat": "13.9626943000000", "name": "Sariaya Police Station", "amenity": "police", "pk": "457873981"}, "geometry": {"type": "Point", "coordinates": [121.5238141, 13.9626943]}}, {"type": "Feature", "id": "530562296", "properties": {"lon": "122.2693113000000", "lat": "12.5772695000000", "name": "Tourist Police", "amenity": "police", "pk": "530562296"}, "geometry": {"type": "Point", "coordinates": [122.2693113, 12.5772695]}}, {"type": "Feature", "id": "380208146", "properties": {"lon": "119.3900678000000", "lat": "11.1805045000000", "name": "El Nido Police Station", "amenity": "police", "pk": "380208146"}, "geometry": {"type": "Point", "coordinates": [119.3900678, 11.1805045]}}, {"type": "Feature", "id": "255067595", "properties": {"lon": "121.0783786000000", "lat": "14.5780621000000", "name": "Pcp-2", "amenity": "police", "pk": "255067595"}, "geometry": {"type": "Point", "coordinates": [121.0783786, 14.5780621]}}, {"type": "Feature", "id": "358640164", "properties": {"lon": "121.4900526000000", "lat": "13.9391023000000", "name": "Santo Cristo Police Assistance Center", "amenity": "police", "pk": "358640164"}, "geometry": {"type": "Point", "coordinates": [121.4900526, 13.9391023]}}, {"type": "Feature", "id": "606291128", "properties": {"lon": "121.2244839000000", "lat": "14.1819119000000", "name": "Los Ba\u00f1os Police", "amenity": "police", "pk": "606291128"}, "geometry": {"type": "Point", "coordinates": [121.2244839, 14.1819119]}}, {"type": "Feature", "id": "356665681", "properties": {"lon": "120.5218061000000", "lat": "14.6754294000000", "name": "Police Community Post", "amenity": "police", "pk": "356665681"}, "geometry": {"type": "Point", "coordinates": [120.5218061, 14.6754294]}}, {"type": "Feature", "id": "610750104", "properties": {"lon": "124.5753928000000", "lat": "11.4739181000000", "name": "Cabucgayan Police Station", "amenity": "police", "pk": "610750104"}, "geometry": {"type": "Point", "coordinates": [124.5753928, 11.4739181]}}, {"type": "Feature", "id": "255059101", "properties": {"lon": "120.9405224000000", "lat": "14.6799782000000", "name": "Sub-station I", "amenity": "police", "pk": "255059101"}, "geometry": {"type": "Point", "coordinates": [120.9405224, 14.6799782]}}, {"type": "Feature", "id": "641748087", "properties": {"lon": "123.1852073000000", "lat": "13.6252655000000", "name": "Naga City Police Station", "amenity": "police", "pk": "641748087"}, "geometry": {"type": "Point", "coordinates": [123.1852073, 13.6252655]}}, {"type": "Feature", "id": "255068202", "properties": {"lon": "120.9949851000000", "lat": "14.6318513000000", "name": "QCPD Station 1", "amenity": "police", "pk": "255068202"}, "geometry": {"type": "Point", "coordinates": [120.9949851, 14.6318513]}}, {"type": "Feature", "id": "255049936", "properties": {"lon": "120.9840103000000", "lat": "14.6634751000000", "name": "Police Community Precinc \u2116 2", "amenity": "police", "pk": "255049936"}, "geometry": {"type": "Point", "coordinates": [120.9840103, 14.6634751]}}, {"type": "Feature", "id": "582962545", "properties": {"lon": "120.9353070000000", "lat": "14.7115714000000", "name": "Obando Police Station", "amenity": "police", "pk": "582962545"}, "geometry": {"type": "Point", "coordinates": [120.935307, 14.7115714]}}, {"type": "Feature", "id": "650001639", "properties": {"lon": "120.8802391000000", "lat": "14.3866429000000", "name": "General Trias City Police Station", "amenity": "police", "pk": "650001639"}, "geometry": {"type": "Point", "coordinates": [120.8802391, 14.3866429]}}, {"type": "Feature", "id": "255070470", "properties": {"lon": "121.0280928000000", "lat": "14.6477905000000", "name": "Station 2", "amenity": "police", "pk": "255070470"}, "geometry": {"type": "Point", "coordinates": [121.0280928, 14.6477905]}}, {"type": "Feature", "id": "255049933", "properties": {"lon": "120.9701761000000", "lat": "14.4585299000000", "name": "Police Community Precinct \u2116 2", "amenity": "police", "pk": "255049933"}, "geometry": {"type": "Point", "coordinates": [120.9701761, 14.4585299]}}, {"type": "Feature", "id": "436766158", "properties": {"lon": "125.5429898000000", "lat": "7.0810206000000", "name": "Barangay Police Community Outpost", "amenity": "police", "pk": "436766158"}, "geometry": {"type": "Point", "coordinates": [125.5429898, 7.0810206]}}, {"type": "Feature", "id": "661969163", "properties": {"lon": "120.9140318000000", "lat": "13.8841819000000", "name": "Lemery Police", "amenity": "police", "pk": "661969163"}, "geometry": {"type": "Point", "coordinates": [120.9140318, 13.8841819]}}, {"type": "Feature", "id": "255060037", "properties": {"lon": "121.0706860000000", "lat": "14.5286400000000", "name": "Taguig Central Police Station", "amenity": "police", "pk": "255060037"}, "geometry": {"type": "Point", "coordinates": [121.070686, 14.52864]}}, {"type": "Feature", "id": "340384547", "properties": {"lon": "121.0446878000000", "lat": "14.8106219000000", "name": "Police Station", "amenity": "police", "pk": "340384547"}, "geometry": {"type": "Point", "coordinates": [121.0446878, 14.8106219]}}, {"type": "Feature", "id": "255070426", "properties": {"lon": "121.0794801000000", "lat": "14.5665337000000", "name": "Pcp-6", "amenity": "police", "pk": "255070426"}, "geometry": {"type": "Point", "coordinates": [121.0794801, 14.5665337]}}, {"type": "Feature", "id": "447803528", "properties": {"lon": "120.9851547000000", "lat": "14.4024903000000", "name": "Police Station", "amenity": "police", "pk": "447803528"}, "geometry": {"type": "Point", "coordinates": [120.9851547, 14.4024903]}}, {"type": "Feature", "id": "597597046", "properties": {"lon": "120.9686378000000", "lat": "14.3960877000000", "name": "Imus City Police Outpost 2", "amenity": "police", "pk": "597597046"}, "geometry": {"type": "Point", "coordinates": [120.9686378, 14.3960877]}}, {"type": "Feature", "id": "255054475", "properties": {"lon": "121.0603958000000", "lat": "14.5628034000000", "name": "Makati Police Precinct \u2116 7", "amenity": "police", "pk": "255054475"}, "geometry": {"type": "Point", "coordinates": [121.0603958, 14.5628034]}}, {"type": "Feature", "id": "255052699", "properties": {"lon": "121.0989680000000", "lat": "14.5748401000000", "name": "Barangay Sec Station Police", "amenity": "police", "pk": "255052699"}, "geometry": {"type": "Point", "coordinates": [121.098968, 14.5748401]}}, {"type": "Feature", "id": "255052977", "properties": {"lon": "120.9897000000000", "lat": "14.5003600000000", "name": "Community Precinct \u2116 2", "amenity": "police", "pk": "255052977"}, "geometry": {"type": "Point", "coordinates": [120.9897, 14.50036]}}, {"type": "Feature", "id": "560411120", "properties": {"lon": "121.0932450000000", "lat": "14.8412850000000", "name": "Brgy Police Force BDS", "amenity": "police", "pk": "560411120"}, "geometry": {"type": "Point", "coordinates": [121.093245, 14.841285]}}, {"type": "Feature", "id": "255058436", "properties": {"lon": "120.9678510000000", "lat": "14.4661887000000", "name": "Pcp-3", "amenity": "police", "pk": "255058436"}, "geometry": {"type": "Point", "coordinates": [120.967851, 14.4661887]}}, {"type": "Feature", "id": "255061715", "properties": {"lon": "120.9815772000000", "lat": "14.4807742000000", "name": "PCP-1", "amenity": "police", "pk": "255061715"}, "geometry": {"type": "Point", "coordinates": [120.9815772, 14.4807742]}}, {"type": "Feature", "id": "255064572", "properties": {"lon": "120.9462270000000", "lat": "14.7081371000000", "name": "Pcp- 5", "amenity": "police", "pk": "255064572"}, "geometry": {"type": "Point", "coordinates": [120.946227, 14.7081371]}}, {"type": "Feature", "id": "560411151", "properties": {"lon": "121.0818420000000", "lat": "14.8356280000000", "name": "PNP Compaq 7", "amenity": "police", "pk": "560411151"}, "geometry": {"type": "Point", "coordinates": [121.081842, 14.835628]}}, {"type": "Feature", "id": "255063240", "properties": {"lon": "120.9936053000000", "lat": "14.5451370000000", "name": "Pasay City Traffic Headquarter", "amenity": "police", "pk": "255063240"}, "geometry": {"type": "Point", "coordinates": [120.9936053, 14.545137]}}, {"type": "Feature", "id": "603556051", "properties": {"lon": "124.3929898000000", "lat": "11.5591381000000", "name": "N/A", "amenity": "police", "pk": "603556051"}, "geometry": {"type": "Point", "coordinates": [124.3929898, 11.5591381]}}, {"type": "Feature", "id": "255069680", "properties": {"lon": "121.0441970000000", "lat": "14.7514500000000", "name": "Sub-station 4", "amenity": "police", "pk": "255069680"}, "geometry": {"type": "Point", "coordinates": [121.044197, 14.75145]}}, {"type": "Feature", "id": "662713169", "properties": {"lon": "120.9872539000000", "lat": "14.5598473000000", "name": "N/A", "amenity": "police", "pk": "662713169"}, "geometry": {"type": "Point", "coordinates": [120.9872539, 14.5598473]}}, {"type": "Feature", "id": "671189196", "properties": {"lon": "121.1553107000000", "lat": "14.1024589000000", "name": "San Miguel Police Assistance Center", "amenity": "police", "pk": "671189196"}, "geometry": {"type": "Point", "coordinates": [121.1553107, 14.1024589]}}, {"type": "Feature", "id": "255069799", "properties": {"lon": "121.0464199000000", "lat": "14.4869974000000", "name": "Pcp- 3", "amenity": "police", "pk": "255069799"}, "geometry": {"type": "Point", "coordinates": [121.0464199, 14.4869974]}}, {"type": "Feature", "id": "382838764", "properties": {"lon": "120.6016409000000", "lat": "14.5009649000000", "name": "PNP Mariveles COMPAC 100", "amenity": "police", "pk": "382838764"}, "geometry": {"type": "Point", "coordinates": [120.6016409, 14.5009649]}}, {"type": "Feature", "id": "255058503", "properties": {"lon": "120.9900280000000", "lat": "14.6443711000000", "name": "Caloocan City PCP 4", "amenity": "police", "pk": "255058503"}, "geometry": {"type": "Point", "coordinates": [120.990028, 14.6443711]}}, {"type": "Feature", "id": "672597463", "properties": {"lon": "121.1244392000000", "lat": "14.6632079000000", "name": "Marikina City Police Station Precinct 15", "amenity": "police", "pk": "672597463"}, "geometry": {"type": "Point", "coordinates": [121.1244392, 14.6632079]}}, {"type": "Feature", "id": "693170191", "properties": {"lon": "120.5921203000000", "lat": "18.1950292000000", "name": "Laoag Police Station", "amenity": "police", "pk": "693170191"}, "geometry": {"type": "Point", "coordinates": [120.5921203, 18.1950292]}}, {"type": "Feature", "id": "1227855146", "properties": {"lon": "125.6096730000000", "lat": "7.0633099000000", "name": "Women & Child Protection & Detection Unit", "amenity": "police", "pk": "1227855146"}, "geometry": {"type": "Point", "coordinates": [125.609673, 7.0633099]}}, {"type": "Feature", "id": "767252241", "properties": {"lon": "120.6421892000000", "lat": "15.0763898000000", "name": "COMPAC 3", "amenity": "police", "pk": "767252241"}, "geometry": {"type": "Point", "coordinates": [120.6421892, 15.0763898]}}, {"type": "Feature", "id": "975857155", "properties": {"lon": "125.4556676000000", "lat": "7.1906911000000", "name": "Calinan Police", "amenity": "police", "pk": "975857155"}, "geometry": {"type": "Point", "coordinates": [125.4556676, 7.1906911]}}, {"type": "Feature", "id": "1228099302", "properties": {"lon": "125.5461528000000", "lat": "7.0551184000000", "name": "Ulas Police Station Sub Precint", "amenity": "police", "pk": "1228099302"}, "geometry": {"type": "Point", "coordinates": [125.5461528, 7.0551184]}}, {"type": "Feature", "id": "786485160", "properties": {"lon": "120.9085678000000", "lat": "14.8177067000000", "name": "Balagtas Municipal Jail", "amenity": "police", "pk": "786485160"}, "geometry": {"type": "Point", "coordinates": [120.9085678, 14.8177067]}}, {"type": "Feature", "id": "731490144", "properties": {"lon": "120.3145770000000", "lat": "16.6179589000000", "name": "N/A", "amenity": "police", "pk": "731490144"}, "geometry": {"type": "Point", "coordinates": [120.314577, 16.6179589]}}, {"type": "Feature", "id": "959119537", "properties": {"lon": "122.9750399000000", "lat": "10.8013020000000", "name": "Silay Police Station", "amenity": "police", "pk": "959119537"}, "geometry": {"type": "Point", "coordinates": [122.9750399, 10.801302]}}, {"type": "Feature", "id": "907388751", "properties": {"lon": "125.1999758000000", "lat": "10.3873097000000", "name": "Hinunangan PD", "amenity": "police", "pk": "907388751"}, "geometry": {"type": "Point", "coordinates": [125.1999758, 10.3873097]}}, {"type": "Feature", "id": "1227850531", "properties": {"lon": "125.6020168000000", "lat": "7.0538142000000", "name": "Region XI Police Crime Laboratory", "amenity": "police", "pk": "1227850531"}, "geometry": {"type": "Point", "coordinates": [125.6020168, 7.0538142]}}, {"type": "Feature", "id": "1202762659", "properties": {"lon": "120.7198116000000", "lat": "15.0652589000000", "name": "Mexico Police Office", "amenity": "police", "pk": "1202762659"}, "geometry": {"type": "Point", "coordinates": [120.7198116, 15.0652589]}}, {"type": "Feature", "id": "1227819612", "properties": {"lon": "125.6588279000000", "lat": "7.1224098000000", "name": "Sasa Police Station", "amenity": "police", "pk": "1227819612"}, "geometry": {"type": "Point", "coordinates": [125.6588279, 7.1224098]}}, {"type": "Feature", "id": "677320795", "properties": {"lon": "121.3252034000000", "lat": "13.9794267000000", "name": "Police Provincial Mobile Group", "amenity": "police", "pk": "677320795"}, "geometry": {"type": "Point", "coordinates": [121.3252034, 13.9794267]}}, {"type": "Feature", "id": "1005338957", "properties": {"lon": "125.6542877000000", "lat": "7.1437397000000", "name": "Relocation Police Station", "amenity": "police", "pk": "1005338957"}, "geometry": {"type": "Point", "coordinates": [125.6542877, 7.1437397]}}, {"type": "Feature", "id": "1229464707", "properties": {"lon": "125.5819613000000", "lat": "7.1028253000000", "name": "Ma-a Police Sub Precinct", "amenity": "police", "pk": "1229464707"}, "geometry": {"type": "Point", "coordinates": [125.5819613, 7.1028253]}}, {"type": "Feature", "id": "1157172890", "properties": {"lon": "124.3354956000000", "lat": "7.9005311000000", "name": "N/A", "amenity": "police", "pk": "1157172890"}, "geometry": {"type": "Point", "coordinates": [124.3354956, 7.9005311]}}, {"type": "Feature", "id": "1228780039", "properties": {"lon": "120.0701337000000", "lat": "15.0606027000000", "name": "San Felipe Police Office", "amenity": "police", "pk": "1228780039"}, "geometry": {"type": "Point", "coordinates": [120.0701337, 15.0606027]}}, {"type": "Feature", "id": "912011745", "properties": {"lon": "121.1594499000000", "lat": "13.9450529000000", "name": "N/A", "amenity": "police", "pk": "912011745"}, "geometry": {"type": "Point", "coordinates": [121.1594499, 13.9450529]}}, {"type": "Feature", "id": "1232598373", "properties": {"lon": "120.5574463000000", "lat": "18.0555645000000", "name": "Police Assistance Center 1", "amenity": "police", "pk": "1232598373"}, "geometry": {"type": "Point", "coordinates": [120.5574463, 18.0555645]}}, {"type": "Feature", "id": "1188819081", "properties": {"lon": "120.9942343000000", "lat": "14.5274292000000", "name": "Police Community Precinct 1", "amenity": "police", "pk": "1188819081"}, "geometry": {"type": "Point", "coordinates": [120.9942343, 14.5274292]}}, {"type": "Feature", "id": "950920186", "properties": {"lon": "121.1111628000000", "lat": "14.5401534000000", "name": "N/A", "amenity": "police", "pk": "950920186"}, "geometry": {"type": "Point", "coordinates": [121.1111628, 14.5401534]}}, {"type": "Feature", "id": "1044540159", "properties": {"lon": "120.9798349000000", "lat": "14.3731057000000", "name": "N/A", "amenity": "police", "pk": "1044540159"}, "geometry": {"type": "Point", "coordinates": [120.9798349, 14.3731057]}}, {"type": "Feature", "id": "965934031", "properties": {"lon": "121.2233720000000", "lat": "14.0573048000000", "name": "N/A", "amenity": "police", "pk": "965934031"}, "geometry": {"type": "Point", "coordinates": [121.223372, 14.0573048]}}, {"type": "Feature", "id": "962802717", "properties": {"lon": "120.9999199000000", "lat": "14.6604873000000", "name": "N/A", "amenity": "police", "pk": "962802717"}, "geometry": {"type": "Point", "coordinates": [120.9999199, 14.6604873]}}, {"type": "Feature", "id": "931621502", "properties": {"lon": "120.8554379000000", "lat": "14.1384387000000", "name": "N/A", "amenity": "police", "pk": "931621502"}, "geometry": {"type": "Point", "coordinates": [120.8554379, 14.1384387]}}, {"type": "Feature", "id": "1008285126", "properties": {"lon": "120.9580725000000", "lat": "14.1583475000000", "name": "Lalaan 2 Police Substation", "amenity": "police", "pk": "1008285126"}, "geometry": {"type": "Point", "coordinates": [120.9580725, 14.1583475]}}, {"type": "Feature", "id": "1157172882", "properties": {"lon": "124.3550564000000", "lat": "7.9794609000000", "name": "N/A", "amenity": "police", "pk": "1157172882"}, "geometry": {"type": "Point", "coordinates": [124.3550564, 7.9794609]}}, {"type": "Feature", "id": "983057841", "properties": {"lon": "120.9905770000000", "lat": "14.4124173000000", "name": "Soldiers Hill Precinct", "amenity": "police", "pk": "983057841"}, "geometry": {"type": "Point", "coordinates": [120.990577, 14.4124173]}}, {"type": "Feature", "id": "1126017057", "properties": {"lon": "122.6423253000000", "lat": "11.1051021000000", "name": "PNP Sub-station", "amenity": "police", "pk": "1126017057"}, "geometry": {"type": "Point", "coordinates": [122.6423253, 11.1051021]}}, {"type": "Feature", "id": "1231083211", "properties": {"lon": "120.5291228000000", "lat": "18.1524630000000", "name": "Laoag City Police Station", "amenity": "police", "pk": "1231083211"}, "geometry": {"type": "Point", "coordinates": [120.5291228, 18.152463]}}, {"type": "Feature", "id": "775042894", "properties": {"lon": "120.9821049000000", "lat": "14.5525922000000", "name": "N/A", "amenity": "police", "pk": "775042894"}, "geometry": {"type": "Point", "coordinates": [120.9821049, 14.5525922]}}, {"type": "Feature", "id": "1231845128", "properties": {"lon": "125.5135258000000", "lat": "7.0323796000000", "name": "Dumoy Police Sub Precint", "amenity": "police", "pk": "1231845128"}, "geometry": {"type": "Point", "coordinates": [125.5135258, 7.0323796]}}, {"type": "Feature", "id": "776002008", "properties": {"lon": "121.3122574000000", "lat": "14.1507156000000", "name": "Calauan Precint 2", "amenity": "police", "pk": "776002008"}, "geometry": {"type": "Point", "coordinates": [121.3122574, 14.1507156]}}, {"type": "Feature", "id": "705931437", "properties": {"lon": "122.9278895000000", "lat": "10.6288118000000", "name": "Bacolod Police Station 8", "amenity": "police", "pk": "705931437"}, "geometry": {"type": "Point", "coordinates": [122.9278895, 10.6288118]}}, {"type": "Feature", "id": "1157172894", "properties": {"lon": "124.3718229000000", "lat": "7.8898747000000", "name": "N/A", "amenity": "police", "pk": "1157172894"}, "geometry": {"type": "Point", "coordinates": [124.3718229, 7.8898747]}}, {"type": "Feature", "id": "1166210695", "properties": {"lon": "121.0017881000000", "lat": "14.6175188000000", "name": "N/A", "amenity": "police", "pk": "1166210695"}, "geometry": {"type": "Point", "coordinates": [121.0017881, 14.6175188]}}, {"type": "Feature", "id": "934864707", "properties": {"lon": "120.6320225000000", "lat": "14.0739465000000", "name": "Nasugbu Police", "amenity": "police", "pk": "934864707"}, "geometry": {"type": "Point", "coordinates": [120.6320225, 14.0739465]}}, {"type": "Feature", "id": "696288642", "properties": {"lon": "121.0884764000000", "lat": "14.6198835000000", "name": "BCEO-TCMP Pasig", "amenity": "police", "pk": "696288642"}, "geometry": {"type": "Point", "coordinates": [121.0884764, 14.6198835]}}, {"type": "Feature", "id": "727856262", "properties": {"lon": "120.3088844000000", "lat": "16.6029512000000", "name": "Junction Police Station", "amenity": "police", "pk": "727856262"}, "geometry": {"type": "Point", "coordinates": [120.3088844, 16.6029512]}}, {"type": "Feature", "id": "1183957310", "properties": {"lon": "121.1563885000000", "lat": "14.6232886000000", "name": "N/A", "amenity": "police", "pk": "1183957310"}, "geometry": {"type": "Point", "coordinates": [121.1563885, 14.6232886]}}, {"type": "Feature", "id": "1202746837", "properties": {"lon": "120.6938264000000", "lat": "15.0278350000000", "name": "San Fernando Police Office", "amenity": "police", "pk": "1202746837"}, "geometry": {"type": "Point", "coordinates": [120.6938264, 15.027835]}}, {"type": "Feature", "id": "1241540597", "properties": {"lon": "125.4552195000000", "lat": "7.1910917000000", "name": "Calinan Police Outpost", "amenity": "police", "pk": "1241540597"}, "geometry": {"type": "Point", "coordinates": [125.4552195, 7.1910917]}}, {"type": "Feature", "id": "832354514", "properties": {"lon": "121.1657846000000", "lat": "13.9608233000000", "name": "Lipa City Police", "amenity": "police", "pk": "832354514"}, "geometry": {"type": "Point", "coordinates": [121.1657846, 13.9608233]}}, {"type": "Feature", "id": "899192887", "properties": {"lon": "124.6087324000000", "lat": "11.0057326000000", "name": "Ormoc City Police Station 1", "amenity": "police", "pk": "899192887"}, "geometry": {"type": "Point", "coordinates": [124.6087324, 11.0057326]}}, {"type": "Feature", "id": "1226384945", "properties": {"lon": "126.2107498000000", "lat": "8.4120821000000", "name": "Tagongon Police Station Headquarters", "amenity": "police", "pk": "1226384945"}, "geometry": {"type": "Point", "coordinates": [126.2107498, 8.4120821]}}, {"type": "Feature", "id": "925986474", "properties": {"lon": "121.1089181000000", "lat": "14.6356842000000", "name": "N/A", "amenity": "police", "pk": "925986474"}, "geometry": {"type": "Point", "coordinates": [121.1089181, 14.6356842]}}, {"type": "Feature", "id": "697792254", "properties": {"lon": "123.0402117000000", "lat": "10.6058875000000", "name": "Murcia Police Department", "amenity": "police", "pk": "697792254"}, "geometry": {"type": "Point", "coordinates": [123.0402117, 10.6058875]}}, {"type": "Feature", "id": "1080178789", "properties": {"lon": "121.0761348000000", "lat": "14.5669020000000", "name": "Caniogan Police Sub-station", "amenity": "police", "pk": "1080178789"}, "geometry": {"type": "Point", "coordinates": [121.0761348, 14.566902]}}, {"type": "Feature", "id": "977999466", "properties": {"lon": "123.1853920000000", "lat": "13.6240300000000", "name": "N/A", "amenity": "police", "pk": "977999466"}, "geometry": {"type": "Point", "coordinates": [123.185392, 13.62403]}}, {"type": "Feature", "id": "1037921414", "properties": {"lon": "120.9788065000000", "lat": "14.5941953000000", "name": "Police Station", "amenity": "police", "pk": "1037921414"}, "geometry": {"type": "Point", "coordinates": [120.9788065, 14.5941953]}}, {"type": "Feature", "id": "1222688931", "properties": {"lon": "123.8020518000000", "lat": "9.5579632000000", "name": "Police Station", "amenity": "police", "pk": "1222688931"}, "geometry": {"type": "Point", "coordinates": [123.8020518, 9.5579632]}}, {"type": "Feature", "id": "1021451517", "properties": {"lon": "120.7105763000000", "lat": "15.0084418000000", "name": "Santo Tomas Police Compac", "amenity": "police", "pk": "1021451517"}, "geometry": {"type": "Point", "coordinates": [120.7105763, 15.0084418]}}, {"type": "Feature", "id": "1234641221", "properties": {"lon": "120.5834082000000", "lat": "18.2052910000000", "name": "police station", "amenity": "police", "pk": "1234641221"}, "geometry": {"type": "Point", "coordinates": [120.5834082, 18.205291]}}, {"type": "Feature", "id": "1055759056", "properties": {"lon": "120.9782835000000", "lat": "14.5921529000000", "name": "N/A", "amenity": "police", "pk": "1055759056"}, "geometry": {"type": "Point", "coordinates": [120.9782835, 14.5921529]}}, {"type": "Feature", "id": "1079179379", "properties": {"lon": "121.1042255000000", "lat": "14.5348536000000", "name": "N/A", "amenity": "police", "pk": "1079179379"}, "geometry": {"type": "Point", "coordinates": [121.1042255, 14.5348536]}}, {"type": "Feature", "id": "1157172885", "properties": {"lon": "124.3799559000000", "lat": "7.9496675000000", "name": "N/A", "amenity": "police", "pk": "1157172885"}, "geometry": {"type": "Point", "coordinates": [124.3799559, 7.9496675]}}, {"type": "Feature", "id": "1227850532", "properties": {"lon": "125.6019879000000", "lat": "7.0540445000000", "name": "PNP Highway Patrol Group Region XI Office", "amenity": "police", "pk": "1227850532"}, "geometry": {"type": "Point", "coordinates": [125.6019879, 7.0540445]}}, {"type": "Feature", "id": "1227855144", "properties": {"lon": "125.6097735000000", "lat": "7.0635776000000", "name": "San Pedro Police Station", "amenity": "police", "pk": "1227855144"}, "geometry": {"type": "Point", "coordinates": [125.6097735, 7.0635776]}}, {"type": "Feature", "id": "1234471851", "properties": {"lon": "120.5937454000000", "lat": "18.1954943000000", "name": "Laoag City Tourist Police Station", "amenity": "police", "pk": "1234471851"}, "geometry": {"type": "Point", "coordinates": [120.5937454, 18.1954943]}}, {"type": "Feature", "id": "772359208", "properties": {"lon": "121.4846324000000", "lat": "14.3642927000000", "name": "Ilaya del Norte Barangay Police", "amenity": "police", "pk": "772359208"}, "geometry": {"type": "Point", "coordinates": [121.4846324, 14.3642927]}}, {"type": "Feature", "id": "914302931", "properties": {"lon": "121.4785821000000", "lat": "14.3810163000000", "name": "N/A", "amenity": "police", "pk": "914302931"}, "geometry": {"type": "Point", "coordinates": [121.4785821, 14.3810163]}}, {"type": "Feature", "id": "1633525471", "properties": {"lon": "121.4373128000000", "lat": "14.2650982000000", "name": "Pagsanjan Police Base", "amenity": "police", "pk": "1633525471"}, "geometry": {"type": "Point", "coordinates": [121.4373128, 14.2650982]}}, {"type": "Feature", "id": "1586949127", "properties": {"lon": "123.8654369000000", "lat": "9.6253960000000", "name": "Dauis Police Station", "amenity": "police", "pk": "1586949127"}, "geometry": {"type": "Point", "coordinates": [123.8654369, 9.625396]}}, {"type": "Feature", "id": "1416377042", "properties": {"lon": "124.7026054000000", "lat": "7.0616979000000", "name": "Pagalungan Pnp Checkpoint", "amenity": "police", "pk": "1416377042"}, "geometry": {"type": "Point", "coordinates": [124.7026054, 7.0616979]}}, {"type": "Feature", "id": "1250745031", "properties": {"lon": "125.6736964000000", "lat": "7.2839020000000", "name": "Panabo City Highway Patrol", "amenity": "police", "pk": "1250745031"}, "geometry": {"type": "Point", "coordinates": [125.6736964, 7.283902]}}, {"type": "Feature", "id": "1330561664", "properties": {"lon": "123.5545354000000", "lat": "8.5391732000000", "name": "PNP Checkpoint (Border of Tolon)", "amenity": "police", "pk": "1330561664"}, "geometry": {"type": "Point", "coordinates": [123.5545354, 8.5391732]}}, {"type": "Feature", "id": "1417219534", "properties": {"lon": "124.2462973000000", "lat": "7.2236012000000", "name": "Women & Child Protection Unit", "amenity": "police", "pk": "1417219534"}, "geometry": {"type": "Point", "coordinates": [124.2462973, 7.2236012]}}, {"type": "Feature", "id": "1444184606", "properties": {"lon": "120.9241953000000", "lat": "14.4114408000000", "name": "N/A", "amenity": "police", "pk": "1444184606"}, "geometry": {"type": "Point", "coordinates": [120.9241953, 14.4114408]}}, {"type": "Feature", "id": "1321329819", "properties": {"lon": "123.8519766000000", "lat": "8.1515438000000", "name": "PNP Substation 1", "amenity": "police", "pk": "1321329819"}, "geometry": {"type": "Point", "coordinates": [123.8519766, 8.1515438]}}, {"type": "Feature", "id": "1327067854", "properties": {"lon": "125.5348837000000", "lat": "9.1198608000000", "name": "Cabadbaran City Police Station", "amenity": "police", "pk": "1327067854"}, "geometry": {"type": "Point", "coordinates": [125.5348837, 9.1198608]}}, {"type": "Feature", "id": "1324590624", "properties": {"lon": "125.6748799000000", "lat": "7.3125933000000", "name": "Police Outpost", "amenity": "police", "pk": "1324590624"}, "geometry": {"type": "Point", "coordinates": [125.6748799, 7.3125933]}}, {"type": "Feature", "id": "1417971146", "properties": {"lon": "124.2454096000000", "lat": "7.1982223000000", "name": "National Bureau of Investigation", "amenity": "police", "pk": "1417971146"}, "geometry": {"type": "Point", "coordinates": [124.2454096, 7.1982223]}}, {"type": "Feature", "id": "1512245903", "properties": {"lon": "120.5019885000000", "lat": "14.9779343000000", "name": "Military Police Station", "amenity": "police", "pk": "1512245903"}, "geometry": {"type": "Point", "coordinates": [120.5019885, 14.9779343]}}, {"type": "Feature", "id": "1258021503", "properties": {"lon": "125.6107364000000", "lat": "7.0644060000000", "name": "Philippine Drug Enforcement Agency", "amenity": "police", "pk": "1258021503"}, "geometry": {"type": "Point", "coordinates": [125.6107364, 7.064406]}}, {"type": "Feature", "id": "1417219514", "properties": {"lon": "124.2461118000000", "lat": "7.2236730000000", "name": "Cotabato City Police Office Station 1", "amenity": "police", "pk": "1417219514"}, "geometry": {"type": "Point", "coordinates": [124.2461118, 7.223673]}}, {"type": "Feature", "id": "1417984998", "properties": {"lon": "124.2444282000000", "lat": "7.2105181000000", "name": "Police Station no. 2", "amenity": "police", "pk": "1417984998"}, "geometry": {"type": "Point", "coordinates": [124.2444282, 7.2105181]}}, {"type": "Feature", "id": "1305136490", "properties": {"lon": "125.7081094000000", "lat": "7.5850814000000", "name": "N/A", "amenity": "police", "pk": "1305136490"}, "geometry": {"type": "Point", "coordinates": [125.7081094, 7.5850814]}}, {"type": "Feature", "id": "1247895173", "properties": {"lon": "125.6239151000000", "lat": "7.2301915000000", "name": "Davao City Police Auxillary Group Outpost", "amenity": "police", "pk": "1247895173"}, "geometry": {"type": "Point", "coordinates": [125.6239151, 7.2301915]}}, {"type": "Feature", "id": "1454723792", "properties": {"lon": "120.9365574000000", "lat": "14.4294285000000", "name": "Imus City Police Station", "amenity": "police", "pk": "1454723792"}, "geometry": {"type": "Point", "coordinates": [120.9365574, 14.4294285]}}, {"type": "Feature", "id": "1416341300", "properties": {"lon": "124.8379384000000", "lat": "7.1044829000000", "name": "Osias Community Police Outpost", "amenity": "police", "pk": "1416341300"}, "geometry": {"type": "Point", "coordinates": [124.8379384, 7.1044829]}}, {"type": "Feature", "id": "1428621064", "properties": {"lon": "121.0584690000000", "lat": "13.7552803000000", "name": "Batangas City Police Station", "amenity": "police", "pk": "1428621064"}, "geometry": {"type": "Point", "coordinates": [121.058469, 13.7552803]}}, {"type": "Feature", "id": "1301676981", "properties": {"lon": "121.3658140000000", "lat": "14.2355743000000", "name": "Pila Police", "amenity": "police", "pk": "1301676981"}, "geometry": {"type": "Point", "coordinates": [121.365814, 14.2355743]}}, {"type": "Feature", "id": "1417076183", "properties": {"lon": "124.2425394000000", "lat": "7.2265350000000", "name": "Police Station 4", "amenity": "police", "pk": "1417076183"}, "geometry": {"type": "Point", "coordinates": [124.2425394, 7.226535]}}, {"type": "Feature", "id": "1363142231", "properties": {"lon": "121.0071497000000", "lat": "14.2958834000000", "name": "General Mariano Alvarez Municipal Police Station", "amenity": "police", "pk": "1363142231"}, "geometry": {"type": "Point", "coordinates": [121.0071497, 14.2958834]}}, {"type": "Feature", "id": "1369661060", "properties": {"lon": "120.7200798000000", "lat": "14.2841284000000", "name": "Ternate Police Station", "amenity": "police", "pk": "1369661060"}, "geometry": {"type": "Point", "coordinates": [120.7200798, 14.2841284]}}, {"type": "Feature", "id": "1583696963", "properties": {"lon": "120.9579897000000", "lat": "14.3009198000000", "name": "N/A", "amenity": "police", "pk": "1583696963"}, "geometry": {"type": "Point", "coordinates": [120.9579897, 14.3009198]}}, {"type": "Feature", "id": "1569072623", "properties": {"lon": "125.6749313000000", "lat": "7.1206933000000", "name": "Highway Patrol group XI Team 2", "amenity": "police", "pk": "1569072623"}, "geometry": {"type": "Point", "coordinates": [125.6749313, 7.1206933]}}, {"type": "Feature", "id": "1504771770", "properties": {"lon": "124.6789796000000", "lat": "6.6883231000000", "name": "Police Sub-station", "amenity": "police", "pk": "1504771770"}, "geometry": {"type": "Point", "coordinates": [124.6789796, 6.6883231]}}, {"type": "Feature", "id": "1332037005", "properties": {"lon": "121.5561195000000", "lat": "13.9753331000000", "name": "Calumpang Public Assistance Center", "amenity": "police", "pk": "1332037005"}, "geometry": {"type": "Point", "coordinates": [121.5561195, 13.9753331]}}, {"type": "Feature", "id": "1645517450", "properties": {"lon": "121.0319116000000", "lat": "14.4234803000000", "name": "N/A", "amenity": "police", "pk": "1645517450"}, "geometry": {"type": "Point", "coordinates": [121.0319116, 14.4234803]}}, {"type": "Feature", "id": "1330561656", "properties": {"lon": "123.5604937000000", "lat": "8.5400259000000", "name": "PNP Checkpoint (Border of Sapang Dalaga)", "amenity": "police", "pk": "1330561656"}, "geometry": {"type": "Point", "coordinates": [123.5604937, 8.5400259]}}, {"type": "Feature", "id": "1283766597", "properties": {"lon": "121.3168258000000", "lat": "14.1773345000000", "name": "Calauan Police", "amenity": "police", "pk": "1283766597"}, "geometry": {"type": "Point", "coordinates": [121.3168258, 14.1773345]}}, {"type": "Feature", "id": "1250741754", "properties": {"lon": "125.6647661000000", "lat": "7.2674392000000", "name": "Lasang Police Community Center", "amenity": "police", "pk": "1250741754"}, "geometry": {"type": "Point", "coordinates": [125.6647661, 7.2674392]}}, {"type": "Feature", "id": "1573903904", "properties": {"lon": "121.2902744000000", "lat": "14.4949704000000", "name": "Police Outpost", "amenity": "police", "pk": "1573903904"}, "geometry": {"type": "Point", "coordinates": [121.2902744, 14.4949704]}}, {"type": "Feature", "id": "1387571410", "properties": {"lon": "125.6903179000000", "lat": "7.4487865000000", "name": "N/A", "amenity": "police", "pk": "1387571410"}, "geometry": {"type": "Point", "coordinates": [125.6903179, 7.4487865]}}, {"type": "Feature", "id": "1511778007", "properties": {"lon": "123.2855975000000", "lat": "9.3593513000000", "name": "Sibulan Municipal Police Station", "amenity": "police", "pk": "1511778007"}, "geometry": {"type": "Point", "coordinates": [123.2855975, 9.3593513]}}, {"type": "Feature", "id": "1319745121", "properties": {"lon": "125.9883767000000", "lat": "7.7042541000000", "name": "Montevista Police Station", "amenity": "police", "pk": "1319745121"}, "geometry": {"type": "Point", "coordinates": [125.9883767, 7.7042541]}}, {"type": "Feature", "id": "1598554051", "properties": {"lon": "121.0584623000000", "lat": "14.5942518000000", "name": "Barangay Community Police Station", "amenity": "police", "pk": "1598554051"}, "geometry": {"type": "Point", "coordinates": [121.0584623, 14.5942518]}}, {"type": "Feature", "id": "1308488871", "properties": {"lon": "121.4557604000000", "lat": "14.2725841000000", "name": "Pagsanjan Police Station", "amenity": "police", "pk": "1308488871"}, "geometry": {"type": "Point", "coordinates": [121.4557604, 14.2725841]}}, {"type": "Feature", "id": "1256734015", "properties": {"lon": "121.4683655000000", "lat": "14.4027548000000", "name": "Pangil Police", "amenity": "police", "pk": "1256734015"}, "geometry": {"type": "Point", "coordinates": [121.4683655, 14.4027548]}}, {"type": "Feature", "id": "1612641960", "properties": {"lon": "123.8547300000000", "lat": "9.6392681000000", "name": "Tagbilaran Police Station", "amenity": "police", "pk": "1612641960"}, "geometry": {"type": "Point", "coordinates": [123.85473, 9.6392681]}}, {"type": "Feature", "id": "1569429196", "properties": {"lon": "125.7250973000000", "lat": "6.9657228000000", "name": "PNP Provincial Office", "amenity": "police", "pk": "1569429196"}, "geometry": {"type": "Point", "coordinates": [125.7250973, 6.9657228]}}, {"type": "Feature", "id": "1374378677", "properties": {"lon": "121.8627242000000", "lat": "13.4735265000000", "name": "Mogpog Police Station", "amenity": "police", "pk": "1374378677"}, "geometry": {"type": "Point", "coordinates": [121.8627242, 13.4735265]}}, {"type": "Feature", "id": "4564395196", "properties": {"lon": "121.0436723000000", "lat": "14.4137867000000", "name": "N/A", "amenity": "police", "pk": "4564395196"}, "geometry": {"type": "Point", "coordinates": [121.0436723, 14.4137867]}}, {"type": "Feature", "id": "1319484263", "properties": {"lon": "120.7340169000000", "lat": "14.8357698000000", "name": "Hagonoy Police Station", "amenity": "police", "pk": "1319484263"}, "geometry": {"type": "Point", "coordinates": [120.7340169, 14.8357698]}}, {"type": "Feature", "id": "1418098667", "properties": {"lon": "124.2448716000000", "lat": "7.2201853000000", "name": "Cotabato City Police Office", "amenity": "police", "pk": "1418098667"}, "geometry": {"type": "Point", "coordinates": [124.2448716, 7.2201853]}}, {"type": "Feature", "id": "1315397561", "properties": {"lon": "125.3409365000000", "lat": "8.9881114000000", "name": "Nasipit Police Station", "amenity": "police", "pk": "1315397561"}, "geometry": {"type": "Point", "coordinates": [125.3409365, 8.9881114]}}, {"type": "Feature", "id": "1330534435", "properties": {"lon": "123.7115767000000", "lat": "8.6172587000000", "name": "Plaridel Police Station", "amenity": "police", "pk": "1330534435"}, "geometry": {"type": "Point", "coordinates": [123.7115767, 8.6172587]}}, {"type": "Feature", "id": "1282295925", "properties": {"lon": "121.2470567000000", "lat": "14.0654104000000", "name": "Alaminos Municipal Police Station", "amenity": "police", "pk": "1282295925"}, "geometry": {"type": "Point", "coordinates": [121.2470567, 14.0654104]}}, {"type": "Feature", "id": "1313268281", "properties": {"lon": "124.0080165000000", "lat": "12.9746674000000", "name": "N/A", "amenity": "police", "pk": "1313268281"}, "geometry": {"type": "Point", "coordinates": [124.0080165, 12.9746674]}}, {"type": "Feature", "id": "1248735959", "properties": {"lon": "120.4607639000000", "lat": "14.8669433000000", "name": "Dinalupihan Police Station", "amenity": "police", "pk": "1248735959"}, "geometry": {"type": "Point", "coordinates": [120.4607639, 14.8669433]}}, {"type": "Feature", "id": "1319873625", "properties": {"lon": "121.0760729000000", "lat": "14.5470939000000", "name": "Police Community Precinct", "amenity": "police", "pk": "1319873625"}, "geometry": {"type": "Point", "coordinates": [121.0760729, 14.5470939]}}, {"type": "Feature", "id": "1358500905", "properties": {"lon": "124.9421641000000", "lat": "10.0771771000000", "name": "Macrohon Police Station", "amenity": "police", "pk": "1358500905"}, "geometry": {"type": "Point", "coordinates": [124.9421641, 10.0771771]}}, {"type": "Feature", "id": "1324590618", "properties": {"lon": "125.6822405000000", "lat": "7.2991940000000", "name": "Panabo City Police Station", "amenity": "police", "pk": "1324590618"}, "geometry": {"type": "Point", "coordinates": [125.6822405, 7.299194]}}, {"type": "Feature", "id": "1417040611", "properties": {"lon": "124.4680753000000", "lat": "7.2790609000000", "name": "Barangay Baguer Community Police Outpost", "amenity": "police", "pk": "1417040611"}, "geometry": {"type": "Point", "coordinates": [124.4680753, 7.2790609]}}, {"type": "Feature", "id": "1417250442", "properties": {"lon": "124.2443012000000", "lat": "7.2214329000000", "name": "Community Defense Headquarter", "amenity": "police", "pk": "1417250442"}, "geometry": {"type": "Point", "coordinates": [124.2443012, 7.2214329]}}, {"type": "Feature", "id": "1358435895", "properties": {"lon": "121.1525364000000", "lat": "14.0916466000000", "name": "N/A", "amenity": "police", "pk": "1358435895"}, "geometry": {"type": "Point", "coordinates": [121.1525364, 14.0916466]}}, {"type": "Feature", "id": "1367393023", "properties": {"lon": "120.5383315000000", "lat": "14.6958077000000", "name": "Tuyo Community Police", "amenity": "police", "pk": "1367393023"}, "geometry": {"type": "Point", "coordinates": [120.5383315, 14.6958077]}}, {"type": "Feature", "id": "1412141682", "properties": {"lon": "120.9814114000000", "lat": "14.5824944000000", "name": "Tourist Police Station", "amenity": "police", "pk": "1412141682"}, "geometry": {"type": "Point", "coordinates": [120.9814114, 14.5824944]}}, {"type": "Feature", "id": "1418098670", "properties": {"lon": "124.2448469000000", "lat": "7.2192503000000", "name": "Highway Patrol Group", "amenity": "police", "pk": "1418098670"}, "geometry": {"type": "Point", "coordinates": [124.2448469, 7.2192503]}}, {"type": "Feature", "id": "1464819263", "properties": {"lon": "120.5060381000000", "lat": "16.2288228000000", "name": "Highway Patrol Group 1", "amenity": "police", "pk": "1464819263"}, "geometry": {"type": "Point", "coordinates": [120.5060381, 16.2288228]}}, {"type": "Feature", "id": "1774630498", "properties": {"lon": "125.0993460000000", "lat": "7.0129358000000", "name": "Police Outpost", "amenity": "police", "pk": "1774630498"}, "geometry": {"type": "Point", "coordinates": [125.099346, 7.0129358]}}, {"type": "Feature", "id": "1804661230", "properties": {"lon": "121.1811786000000", "lat": "13.4145299000000", "name": "Calapan City Police Station", "amenity": "police", "pk": "1804661230"}, "geometry": {"type": "Point", "coordinates": [121.1811786, 13.4145299]}}, {"type": "Feature", "id": "1769531704", "properties": {"lon": "121.8605458000000", "lat": "13.4733240000000", "name": "Mogpog PCP-2", "amenity": "police", "pk": "1769531704"}, "geometry": {"type": "Point", "coordinates": [121.8605458, 13.473324]}}, {"type": "Feature", "id": "1775759590", "properties": {"lon": "125.0912712000000", "lat": "7.0076924000000", "name": "Kidapawan City Police Station", "amenity": "police", "pk": "1775759590"}, "geometry": {"type": "Point", "coordinates": [125.0912712, 7.0076924]}}, {"type": "Feature", "id": "1827443583", "properties": {"lon": "123.7447488000000", "lat": "13.1459202000000", "name": "Legazpi City Police", "amenity": "police", "pk": "1827443583"}, "geometry": {"type": "Point", "coordinates": [123.7447488, 13.1459202]}}, {"type": "Feature", "id": "2067991464", "properties": {"lon": "125.6822035000000", "lat": "7.3022323000000", "name": "PNP Outpost No. 4", "amenity": "police", "pk": "2067991464"}, "geometry": {"type": "Point", "coordinates": [125.6822035, 7.3022323]}}, {"type": "Feature", "id": "2110740234", "properties": {"lon": "121.1243473000000", "lat": "14.2713107000000", "name": "Cabuyao City Police", "amenity": "police", "pk": "2110740234"}, "geometry": {"type": "Point", "coordinates": [121.1243473, 14.2713107]}}, {"type": "Feature", "id": "1814846581", "properties": {"lon": "122.3292753000000", "lat": "11.7046744000000", "name": "Numancia Police Station", "amenity": "police", "pk": "1814846581"}, "geometry": {"type": "Point", "coordinates": [122.3292753, 11.7046744]}}, {"type": "Feature", "id": "1909352367", "properties": {"lon": "125.0009707000000", "lat": "8.3021374000000", "name": "Impasug-ong Police Station", "amenity": "police", "pk": "1909352367"}, "geometry": {"type": "Point", "coordinates": [125.0009707, 8.3021374]}}, {"type": "Feature", "id": "1797836391", "properties": {"lon": "120.9282282000000", "lat": "14.4518663000000", "name": "Evangelista Bacoor PNP", "amenity": "police", "pk": "1797836391"}, "geometry": {"type": "Point", "coordinates": [120.9282282, 14.4518663]}}, {"type": "Feature", "id": "2004106467", "properties": {"lon": "121.1572436000000", "lat": "14.5868720000000", "name": "Compac 3 (Police Assistance Center)", "amenity": "police", "pk": "2004106467"}, "geometry": {"type": "Point", "coordinates": [121.1572436, 14.586872]}}, {"type": "Feature", "id": "1651726813", "properties": {"lon": "121.7250283000000", "lat": "17.6084831000000", "name": "Cagayan Valley Provincial Police Office", "amenity": "police", "pk": "1651726813"}, "geometry": {"type": "Point", "coordinates": [121.7250283, 17.6084831]}}, {"type": "Feature", "id": "2083943829", "properties": {"lon": "124.3040599000000", "lat": "8.4983948000000", "name": "Initao Police Station", "amenity": "police", "pk": "2083943829"}, "geometry": {"type": "Point", "coordinates": [124.3040599, 8.4983948]}}, {"type": "Feature", "id": "2166594024", "properties": {"lon": "123.9930287000000", "lat": "11.0493890000000", "name": "Bogo City Police Station", "amenity": "police", "pk": "2166594024"}, "geometry": {"type": "Point", "coordinates": [123.9930287, 11.049389]}}, {"type": "Feature", "id": "2192642675", "properties": {"lon": "120.5658134000000", "lat": "16.4423211000000", "name": "Longlong Compact", "amenity": "police", "pk": "2192642675"}, "geometry": {"type": "Point", "coordinates": [120.5658134, 16.4423211]}}, {"type": "Feature", "id": "1740281930", "properties": {"lon": "120.4486954000000", "lat": "17.1905763000000", "name": "San Jose Barangay Police Outpost", "amenity": "police", "pk": "1740281930"}, "geometry": {"type": "Point", "coordinates": [120.4486954, 17.1905763]}}, {"type": "Feature", "id": "1914215621", "properties": {"lon": "125.8457959000000", "lat": "7.4759224000000", "name": "Magdum Police Station", "amenity": "police", "pk": "1914215621"}, "geometry": {"type": "Point", "coordinates": [125.8457959, 7.4759224]}}, {"type": "Feature", "id": "1886129904", "properties": {"lon": "124.8642272000000", "lat": "8.3675033000000", "name": "Manolo Fortich Police Station", "amenity": "police", "pk": "1886129904"}, "geometry": {"type": "Point", "coordinates": [124.8642272, 8.3675033]}}, {"type": "Feature", "id": "2145128902", "properties": {"lon": "122.5627340000000", "lat": "10.7153585000000", "name": "N/A", "amenity": "police", "pk": "2145128902"}, "geometry": {"type": "Point", "coordinates": [122.562734, 10.7153585]}}, {"type": "Feature", "id": "1746658220", "properties": {"lon": "125.9741807000000", "lat": "8.5079323000000", "name": "San Francisco Municipal Police Station", "amenity": "police", "pk": "1746658220"}, "geometry": {"type": "Point", "coordinates": [125.9741807, 8.5079323]}}, {"type": "Feature", "id": "2103867019", "properties": {"lon": "123.2724649000000", "lat": "7.6492429000000", "name": "N/A", "amenity": "police", "pk": "2103867019"}, "geometry": {"type": "Point", "coordinates": [123.2724649, 7.6492429]}}, {"type": "Feature", "id": "2027727444", "properties": {"lon": "120.7818244000000", "lat": "14.9943536000000", "name": "San Miguel Barangay Outpost", "amenity": "police", "pk": "2027727444"}, "geometry": {"type": "Point", "coordinates": [120.7818244, 14.9943536]}}, {"type": "Feature", "id": "2145128904", "properties": {"lon": "122.5531518000000", "lat": "10.7162119000000", "name": "SM Police Outpost", "amenity": "police", "pk": "2145128904"}, "geometry": {"type": "Point", "coordinates": [122.5531518, 10.7162119]}}, {"type": "Feature", "id": "1989696203", "properties": {"lon": "121.1758244000000", "lat": "14.5808872000000", "name": "Police Outpost", "amenity": "police", "pk": "1989696203"}, "geometry": {"type": "Point", "coordinates": [121.1758244, 14.5808872]}}, {"type": "Feature", "id": "1952305571", "properties": {"lon": "120.4989316000000", "lat": "14.4399775000000", "name": "FAB Police Station", "amenity": "police", "pk": "1952305571"}, "geometry": {"type": "Point", "coordinates": [120.4989316, 14.4399775]}}, {"type": "Feature", "id": "2166147229", "properties": {"lon": "123.1915672000000", "lat": "13.6307280000000", "name": "Pe\u00f1afrancia Police Station", "amenity": "police", "pk": "2166147229"}, "geometry": {"type": "Point", "coordinates": [123.1915672, 13.630728]}}, {"type": "Feature", "id": "2034641199", "properties": {"lon": "124.6309974000000", "lat": "8.4464920000000", "name": "Barangay Bulalang Police Outpost", "amenity": "police", "pk": "2034641199"}, "geometry": {"type": "Point", "coordinates": [124.6309974, 8.446492]}}, {"type": "Feature", "id": "2094522306", "properties": {"lon": "120.9365751000000", "lat": "14.3267043000000", "name": "Dasmari\u00f1as City Police", "amenity": "police", "pk": "2094522306"}, "geometry": {"type": "Point", "coordinates": [120.9365751, 14.3267043]}}, {"type": "Feature", "id": "1979217608", "properties": {"lon": "124.9392806000000", "lat": "7.7817188000000", "name": "Maramag Police Sub-station", "amenity": "police", "pk": "1979217608"}, "geometry": {"type": "Point", "coordinates": [124.9392806, 7.7817188]}}, {"type": "Feature", "id": "2191895285", "properties": {"lon": "125.0020129000000", "lat": "11.1777924000000", "name": "Pawing Police Sub-Station", "amenity": "police", "pk": "2191895285"}, "geometry": {"type": "Point", "coordinates": [125.0020129, 11.1777924]}}, {"type": "Feature", "id": "2021099137", "properties": {"lon": "121.2215066000000", "lat": "14.1622002000000", "name": "Makiling Forest Reserve Monitoring Station", "amenity": "police", "pk": "2021099137"}, "geometry": {"type": "Point", "coordinates": [121.2215066, 14.1622002]}}, {"type": "Feature", "id": "1818671608", "properties": {"lon": "122.5973378000000", "lat": "11.4293547000000", "name": "Mambusao Police Station", "amenity": "police", "pk": "1818671608"}, "geometry": {"type": "Point", "coordinates": [122.5973378, 11.4293547]}}, {"type": "Feature", "id": "1752574728", "properties": {"lon": "123.7046278000000", "lat": "13.3972934000000", "name": "Malinao Police Station", "amenity": "police", "pk": "1752574728"}, "geometry": {"type": "Point", "coordinates": [123.7046278, 13.3972934]}}, {"type": "Feature", "id": "2198109415", "properties": {"lon": "119.9100680000000", "lat": "15.4339168000000", "name": "Palauig Police Station", "amenity": "police", "pk": "2198109415"}, "geometry": {"type": "Point", "coordinates": [119.910068, 15.4339168]}}, {"type": "Feature", "id": "2172787278", "properties": {"lon": "124.9984865000000", "lat": "11.2075186000000", "name": "VG Police Station", "amenity": "police", "pk": "2172787278"}, "geometry": {"type": "Point", "coordinates": [124.9984865, 11.2075186]}}, {"type": "Feature", "id": "2022545583", "properties": {"lon": "120.5372334000000", "lat": "14.8017262000000", "name": "Orani Police Station 2", "amenity": "police", "pk": "2022545583"}, "geometry": {"type": "Point", "coordinates": [120.5372334, 14.8017262]}}, {"type": "Feature", "id": "2071510870", "properties": {"lon": "120.2817639000000", "lat": "14.8287584000000", "name": "Olongapo City Police", "amenity": "police", "pk": "2071510870"}, "geometry": {"type": "Point", "coordinates": [120.2817639, 14.8287584]}}, {"type": "Feature", "id": "2052353849", "properties": {"lon": "121.0548717000000", "lat": "14.5802297000000", "name": "Mandaluyong PCP 4", "amenity": "police", "pk": "2052353849"}, "geometry": {"type": "Point", "coordinates": [121.0548717, 14.5802297]}}, {"type": "Feature", "id": "1914016267", "properties": {"lon": "125.6121485000000", "lat": "7.6272729000000", "name": "Talaingod Municipal Police Station", "amenity": "police", "pk": "1914016267"}, "geometry": {"type": "Point", "coordinates": [125.6121485, 7.6272729]}}, {"type": "Feature", "id": "2068022166", "properties": {"lon": "125.9583865000000", "lat": "7.5999189000000", "name": "Compostela Valley Provincial Police Office", "amenity": "police", "pk": "2068022166"}, "geometry": {"type": "Point", "coordinates": [125.9583865, 7.5999189]}}, {"type": "Feature", "id": "2177945382", "properties": {"lon": "120.4234887000000", "lat": "16.8938228000000", "name": "Bangar Police Station", "amenity": "police", "pk": "2177945382"}, "geometry": {"type": "Point", "coordinates": [120.4234887, 16.8938228]}}, {"type": "Feature", "id": "1758067565", "properties": {"lon": "123.9621890000000", "lat": "9.9525030000000", "name": "N/A", "amenity": "police", "pk": "1758067565"}, "geometry": {"type": "Point", "coordinates": [123.962189, 9.952503]}}, {"type": "Feature", "id": "2185348016", "properties": {"lon": "126.3755577000000", "lat": "7.8698760000000", "name": "Boston PNP Office", "amenity": "police", "pk": "2185348016"}, "geometry": {"type": "Point", "coordinates": [126.3755577, 7.869876]}}, {"type": "Feature", "id": "2102765739", "properties": {"lon": "123.1658847000000", "lat": "7.5751317000000", "name": "N/A", "amenity": "police", "pk": "2102765739"}, "geometry": {"type": "Point", "coordinates": [123.1658847, 7.5751317]}}, {"type": "Feature", "id": "1676805947", "properties": {"lon": "120.5707612000000", "lat": "15.2900223000000", "name": "N/A", "amenity": "police", "pk": "1676805947"}, "geometry": {"type": "Point", "coordinates": [120.5707612, 15.2900223]}}, {"type": "Feature", "id": "2081855724", "properties": {"lon": "123.8242629000000", "lat": "10.7280037000000", "name": "Tuburan Police Office", "amenity": "police", "pk": "2081855724"}, "geometry": {"type": "Point", "coordinates": [123.8242629, 10.7280037]}}, {"type": "Feature", "id": "1738711296", "properties": {"lon": "124.4579643000000", "lat": "6.8325303000000", "name": "N/A", "amenity": "police", "pk": "1738711296"}, "geometry": {"type": "Point", "coordinates": [124.4579643, 6.8325303]}}, {"type": "Feature", "id": "1762167601", "properties": {"lon": "121.9904833000000", "lat": "12.4183963000000", "name": "Provincial Highway Patrol", "amenity": "police", "pk": "1762167601"}, "geometry": {"type": "Point", "coordinates": [121.9904833, 12.4183963]}}, {"type": "Feature", "id": "1851002450", "properties": {"lon": "125.0132229000000", "lat": "10.7470688000000", "name": "Abuyog Police Station", "amenity": "police", "pk": "1851002450"}, "geometry": {"type": "Point", "coordinates": [125.0132229, 10.7470688]}}, {"type": "Feature", "id": "2083641600", "properties": {"lon": "123.9499382000000", "lat": "10.3044119000000", "name": "N/A", "amenity": "police", "pk": "2083641600"}, "geometry": {"type": "Point", "coordinates": [123.9499382, 10.3044119]}}, {"type": "Feature", "id": "2103865996", "properties": {"lon": "123.2678222000000", "lat": "7.6484763000000", "name": "N/A", "amenity": "police", "pk": "2103865996"}, "geometry": {"type": "Point", "coordinates": [123.2678222, 7.6484763]}}, {"type": "Feature", "id": "2128610502", "properties": {"lon": "122.4777746000000", "lat": "10.6921002000000", "name": "Oton Station", "amenity": "police", "pk": "2128610502"}, "geometry": {"type": "Point", "coordinates": [122.4777746, 10.6921002]}}, {"type": "Feature", "id": "2168906307", "properties": {"lon": "121.5640155000000", "lat": "16.5403966000000", "name": "Saguday Police Station", "amenity": "police", "pk": "2168906307"}, "geometry": {"type": "Point", "coordinates": [121.5640155, 16.5403966]}}, {"type": "Feature", "id": "2179308109", "properties": {"lon": "123.8768133000000", "lat": "10.2923444000000", "name": "Police Station 11", "amenity": "police", "pk": "2179308109"}, "geometry": {"type": "Point", "coordinates": [123.8768133, 10.2923444]}}, {"type": "Feature", "id": "2189266720", "properties": {"lon": "122.1011397000000", "lat": "13.9207843000000", "name": "Gumaca Police Station", "amenity": "police", "pk": "2189266720"}, "geometry": {"type": "Point", "coordinates": [122.1011397, 13.9207843]}}, {"type": "Feature", "id": "1740245847", "properties": {"lon": "120.8530052000000", "lat": "14.0667229000000", "name": "PNP Check Point", "amenity": "police", "pk": "1740245847"}, "geometry": {"type": "Point", "coordinates": [120.8530052, 14.0667229]}}, {"type": "Feature", "id": "1774101429", "properties": {"lon": "125.0060401000000", "lat": "7.7608364000000", "name": "Maramag's Police Station", "amenity": "police", "pk": "1774101429"}, "geometry": {"type": "Point", "coordinates": [125.0060401, 7.7608364]}}, {"type": "Feature", "id": "1912742741", "properties": {"lon": "121.0372510000000", "lat": "14.3100351000000", "name": "N/A", "amenity": "police", "pk": "1912742741"}, "geometry": {"type": "Point", "coordinates": [121.037251, 14.3100351]}}, {"type": "Feature", "id": "1983770760", "properties": {"lon": "120.9840660000000", "lat": "14.5584271000000", "name": "N/A", "amenity": "police", "pk": "1983770760"}, "geometry": {"type": "Point", "coordinates": [120.984066, 14.5584271]}}, {"type": "Feature", "id": "2172999332", "properties": {"lon": "124.8867224000000", "lat": "11.1365289000000", "name": "Pastrana Police Station", "amenity": "police", "pk": "2172999332"}, "geometry": {"type": "Point", "coordinates": [124.8867224, 11.1365289]}}, {"type": "Feature", "id": "2192676956", "properties": {"lon": "126.1357420000000", "lat": "7.5479176000000", "name": "New Bataan Police Station", "amenity": "police", "pk": "2192676956"}, "geometry": {"type": "Point", "coordinates": [126.135742, 7.5479176]}}, {"type": "Feature", "id": "2518552204", "properties": {"lon": "124.0973591000000", "lat": "13.5978841000000", "name": "Community Police Assistance Center", "amenity": "police", "pk": "2518552204"}, "geometry": {"type": "Point", "coordinates": [124.0973591, 13.5978841]}}, {"type": "Feature", "id": "2286478395", "properties": {"lon": "120.9599598000000", "lat": "14.4606911000000", "name": "Bacoor Police Station", "amenity": "police", "pk": "2286478395"}, "geometry": {"type": "Point", "coordinates": [120.9599598, 14.4606911]}}, {"type": "Feature", "id": "2322746703", "properties": {"lon": "120.9776802000000", "lat": "14.6057277000000", "name": "Barangay 260 Outpost", "amenity": "police", "pk": "2322746703"}, "geometry": {"type": "Point", "coordinates": [120.9776802, 14.6057277]}}, {"type": "Feature", "id": "2521872487", "properties": {"lon": "120.5981682000000", "lat": "14.9722782000000", "name": "N/A", "amenity": "police", "pk": "2521872487"}, "geometry": {"type": "Point", "coordinates": [120.5981682, 14.9722782]}}, {"type": "Feature", "id": "2463859106", "properties": {"lon": "120.7517750000000", "lat": "14.9847921000000", "name": "San Simon PNP Office", "amenity": "police", "pk": "2463859106"}, "geometry": {"type": "Point", "coordinates": [120.751775, 14.9847921]}}, {"type": "Feature", "id": "2795042804", "properties": {"lon": "122.3220551000000", "lat": "10.6615344000000", "name": "Guimbal Police Station", "amenity": "police", "pk": "2795042804"}, "geometry": {"type": "Point", "coordinates": [122.3220551, 10.6615344]}}, {"type": "Feature", "id": "2822042324", "properties": {"lon": "121.5472753000000", "lat": "11.9321986000000", "name": "Caluya Municipal Police Station", "amenity": "police", "pk": "2822042324"}, "geometry": {"type": "Point", "coordinates": [121.5472753, 11.9321986]}}, {"type": "Feature", "id": "2522776657", "properties": {"lon": "120.6333547000000", "lat": "14.9651752000000", "name": "Guagua Municipal Police Station", "amenity": "police", "pk": "2522776657"}, "geometry": {"type": "Point", "coordinates": [120.6333547, 14.9651752]}}, {"type": "Feature", "id": "2818018123", "properties": {"lon": "122.0788266000000", "lat": "6.9215677000000", "name": "Sector 4 Community Police Assistance Center", "amenity": "police", "pk": "2818018123"}, "geometry": {"type": "Point", "coordinates": [122.0788266, 6.9215677]}}, {"type": "Feature", "id": "2283005899", "properties": {"lon": "120.7935696000000", "lat": "16.8585400000000", "name": "N/A", "amenity": "police", "pk": "2283005899"}, "geometry": {"type": "Point", "coordinates": [120.7935696, 16.85854]}}, {"type": "Feature", "id": "2529787667", "properties": {"lon": "121.8886994000000", "lat": "11.8447645000000", "name": "N/A", "amenity": "police", "pk": "2529787667"}, "geometry": {"type": "Point", "coordinates": [121.8886994, 11.8447645]}}, {"type": "Feature", "id": "2277992430", "properties": {"lon": "125.0203957000000", "lat": "11.2055583000000", "name": "San Jose Police Station", "amenity": "police", "pk": "2277992430"}, "geometry": {"type": "Point", "coordinates": [125.0203957, 11.2055583]}}, {"type": "Feature", "id": "2498151147", "properties": {"lon": "124.2198668000000", "lat": "13.5791953000000", "name": "Camp Francisco Camacho", "amenity": "police", "pk": "2498151147"}, "geometry": {"type": "Point", "coordinates": [124.2198668, 13.5791953]}}, {"type": "Feature", "id": "2342911010", "properties": {"lon": "120.9231879000000", "lat": "17.0050776000000", "name": "Community Police Assistance Center", "amenity": "police", "pk": "2342911010"}, "geometry": {"type": "Point", "coordinates": [120.9231879, 17.0050776]}}, {"type": "Feature", "id": "2760123767", "properties": {"lon": "120.9578322000000", "lat": "14.8656073000000", "name": "Pandi Police Station", "amenity": "police", "pk": "2760123767"}, "geometry": {"type": "Point", "coordinates": [120.9578322, 14.8656073]}}, {"type": "Feature", "id": "2296666086", "properties": {"lon": "121.7327671000000", "lat": "17.6244743000000", "name": "Don Domingo Police Station", "amenity": "police", "pk": "2296666086"}, "geometry": {"type": "Point", "coordinates": [121.7327671, 17.6244743]}}, {"type": "Feature", "id": "2542074975", "properties": {"lon": "124.9898741000000", "lat": "11.1842693000000", "name": "Philippine National Police", "amenity": "police", "pk": "2542074975"}, "geometry": {"type": "Point", "coordinates": [124.9898741, 11.1842693]}}, {"type": "Feature", "id": "2803063509", "properties": {"lon": "122.0929168000000", "lat": "6.9391419000000", "name": "Police Station No. 10", "amenity": "police", "pk": "2803063509"}, "geometry": {"type": "Point", "coordinates": [122.0929168, 6.9391419]}}, {"type": "Feature", "id": "2663921536", "properties": {"lon": "121.8686498000000", "lat": "6.5432765000000", "name": "Police Headquarter", "amenity": "police", "pk": "2663921536"}, "geometry": {"type": "Point", "coordinates": [121.8686498, 6.5432765]}}, {"type": "Feature", "id": "2552460708", "properties": {"lon": "125.6051447000000", "lat": "8.9774578000000", "name": "Taguibo Community Police Assistance", "amenity": "police", "pk": "2552460708"}, "geometry": {"type": "Point", "coordinates": [125.6051447, 8.9774578]}}, {"type": "Feature", "id": "2596298726", "properties": {"lon": "121.4566674000000", "lat": "14.4454387000000", "name": "Tourist Police", "amenity": "police", "pk": "2596298726"}, "geometry": {"type": "Point", "coordinates": [121.4566674, 14.4454387]}}, {"type": "Feature", "id": "2518552239", "properties": {"lon": "124.2311806000000", "lat": "13.5793641000000", "name": "Virac Police Precinct", "amenity": "police", "pk": "2518552239"}, "geometry": {"type": "Point", "coordinates": [124.2311806, 13.5793641]}}, {"type": "Feature", "id": "2322740068", "properties": {"lon": "121.2850599000000", "lat": "14.4980159000000", "name": "Police outpost", "amenity": "police", "pk": "2322740068"}, "geometry": {"type": "Point", "coordinates": [121.2850599, 14.4980159]}}, {"type": "Feature", "id": "2296748513", "properties": {"lon": "124.6514994000000", "lat": "8.4777565000000", "name": "Cagayan de Oro City Police Precinct 2", "amenity": "police", "pk": "2296748513"}, "geometry": {"type": "Point", "coordinates": [124.6514994, 8.4777565]}}, {"type": "Feature", "id": "2241818022", "properties": {"lon": "122.1425311000000", "lat": "18.4582363000000", "name": "Cagayan Police", "amenity": "police", "pk": "2241818022"}, "geometry": {"type": "Point", "coordinates": [122.1425311, 18.4582363]}}, {"type": "Feature", "id": "2322938357", "properties": {"lon": "120.6315073000000", "lat": "13.8325990000000", "name": "Calatagan Municipal Police Station", "amenity": "police", "pk": "2322938357"}, "geometry": {"type": "Point", "coordinates": [120.6315073, 13.832599]}}, {"type": "Feature", "id": "2550719626", "properties": {"lon": "121.7244332000000", "lat": "17.6090033000000", "name": "Cagayan Provincial Police Office", "amenity": "police", "pk": "2550719626"}, "geometry": {"type": "Point", "coordinates": [121.7244332, 17.6090033]}}, {"type": "Feature", "id": "2364085723", "properties": {"lon": "125.5436279000000", "lat": "8.9502191000000", "name": "N/A", "amenity": "police", "pk": "2364085723"}, "geometry": {"type": "Point", "coordinates": [125.5436279, 8.9502191]}}, {"type": "Feature", "id": "2497224912", "properties": {"lon": "121.0915809000000", "lat": "16.2836992000000", "name": "Dupax del Sur Police", "amenity": "police", "pk": "2497224912"},